[{"name":"鹽埕分館","representImage":"","intro":"","address":"鹽埕區大仁路179號5、6樓","longitude":"","latitude":"","openTime":"開架書刊閱覽室：\r\n週三、週五、週六、週日 9:00~17:00\r\n週二、週四 11:00~19:00\r\n閱報室、自修室：\r\n週二至週五 08:00~21:00 \r\n週六至週日 09:00~17:00","closeDay":"週一及國定假日休館","phone":"5322912\r\n5322914","srcWebsite":"https://www.khcc.gov.tw/","name_eng":"","intro_eng":"","mainTypeName":"特色圖書館","cityName":"高雄市","groupTypeName":"特色圖書館","mainTypePk":"KHCC_10","version":"1.0","hitRate":2},{"name":"前鎮分館","representImage":"","intro":"","address":"前鎮區保泰路303號4-5樓","longitude":"","latitude":"","openTime":"週二至週六09:00~21:00\r\n週日09:00~17:00","closeDay":"週一及國定假日休館","phone":"7173008\r\n7173009","srcWebsite":"https://www.khcc.gov.tw/","name_eng":"","intro_eng":"","mainTypeName":"特色圖書館","cityName":"高雄市","groupTypeName":"特色圖書館","mainTypePk":"KHCC_11","version":"1.0","hitRate":0},{"name":"寶珠分館","representImage":"","intro":"","address":"三民區大順二路468號4樓","longitude":"","latitude":"","openTime":"週二至週六09:00~21:00\r\n週日09:00~17:00","closeDay":"週一及國定假日休館","phone":"3950813\r\n3950814","srcWebsite":"https://www.khcc.gov.tw/","name_eng":"","intro_eng":"","mainTypeName":"特色圖書館","cityName":"高雄市","groupTypeName":"特色圖書館","mainTypePk":"KHCC_12","version":"1.0","hitRate":1},{"name":"南鼓山分館","representImage":"","intro":"","address":"鼓山區延平街87-13號4樓","longitude":"","latitude":"","openTime":"開架書刊閱覽室：\r\n週三、週五、週六、週日 9:00~17:00\r\n週二、週四 11:00~19:00\r\n閱報室、自修室：\r\n週二至週五 08:00~21:00 \r\n週六至週日 09:00~17:00","closeDay":"週一及國定假日休館","phone":"5610940-1","srcWebsite":"https://www.khcc.gov.tw/","name_eng":"","intro_eng":"","mainTypeName":"特色圖書館","cityName":"高雄市","groupTypeName":"特色圖書館","mainTypePk":"KHCC_13","version":"1.0","hitRate":0},{"name":"苓雅分館","representImage":"","intro":"","address":"苓雅區青年二路101號4-5樓","longitude":"","latitude":"","openTime":"開架書刊閱覽室：\r\n週三、週五、週六、週日 9:00~17:00\r\n週二、週四 11:00~19:00\r\n閱報室、自修室：\r\n週二至週五 08:00~21:00 \r\n週六至週日 09:00~17:00","closeDay":"週一及國定假日休館","phone":"5350287","srcWebsite":"https://www.khcc.gov.tw/","name_eng":"","intro_eng":"","mainTypeName":"特色圖書館","cityName":"高雄市","groupTypeName":"特色圖書館","mainTypePk":"KHCC_14","version":"1.0","hitRate":0},{"name":"翠屏分館","representImage":"","intro":"","address":"楠梓區德惠路55號3樓","longitude":"","latitude":"","openTime":"開架書刊閱覽室：\r\n週三、週五、週六、週日 9:00~17:00\r\n週二、週四 11:00~19:00\r\n閱報室：\r\n週二至週五 08:00~21:00 \r\n週六至週日 09:00~17:00","closeDay":"週一及國定假日休館","phone":"3639358\r\n3639370","srcWebsite":"https://www.khcc.gov.tw/","name_eng":"","intro_eng":"","mainTypeName":"特色圖書館","cityName":"高雄市","groupTypeName":"特色圖書館","mainTypePk":"KHCC_15","version":"1.0","hitRate":0},{"name":"陽明分館","representImage":"","intro":"","address":"三民區陽明路300號3樓","longitude":"","latitude":"","openTime":"開架書刊閱覽室：\r\n週三、週五、週六、週日 9:00~17:00\r\n週二、週四 11:00~19:00\r\n閱報室、自修室：\r\n週二至週五 08:00~21:00 \r\n週六至週日 09:00~17:00","closeDay":"週一及國定假日休館","phone":"3899938","srcWebsite":"https://www.khcc.gov.tw/","name_eng":"","intro_eng":"","mainTypeName":"特色圖書館","cityName":"高雄市","groupTypeName":"特色圖書館","mainTypePk":"KHCC_16","version":"1.0","hitRate":0},{"name":"楠仔坑分館","representImage":"","intro":"","address":"楠梓區楠梓路262號（楠梓國小旁、旗楠路上）","longitude":"","latitude":"","openTime":"週二至週六09:00~21:00\r\n週日09:00~17:00","closeDay":"週一及國定假日休館","phone":"3551381-2","srcWebsite":"https://www.khcc.gov.tw/","name_eng":"","intro_eng":"","mainTypeName":"特色圖書館","cityName":"高雄市","groupTypeName":"特色圖書館","mainTypePk":"KHCC_17","version":"1.0","hitRate":0},{"name":"左新分館","representImage":"","intro":"","address":"左營區博愛三路453號","longitude":"","latitude":"","openTime":"週二至週六09:00~21:00\r\n週日09:00~17:00","closeDay":"週一及國定假日休館","phone":"3500228\r\n3500840\r\n3500847","srcWebsite":"https://www.khcc.gov.tw/","name_eng":"","intro_eng":"","mainTypeName":"特色圖書館","cityName":"高雄市","groupTypeName":"特色圖書館","mainTypePk":"KHCC_18","version":"1.0","hitRate":0},{"name":"小港分館","representImage":"","intro":"","address":"小港區博學路365號","longitude":"","latitude":"","openTime":"週二至週六09:00~21:00\r\n週日09:00~17:00","closeDay":"週一及國定假日休館","phone":"8024310\r\n8021512","srcWebsite":"https://www.khcc.gov.tw/","name_eng":"","intro_eng":"","mainTypeName":"特色圖書館","cityName":"高雄市","groupTypeName":"特色圖書館","mainTypePk":"KHCC_19","version":"1.0","hitRate":3},{"name":"高雄市文化中心分館","representImage":"","intro":"","address":"苓雅區五福一路67號","longitude":"","latitude":"","openTime":"週二至週六09:00~21:00\r\n週日09:00~17:00","closeDay":"週一及國定假日休館","phone":"2225136轉8213","srcWebsite":"https://www.khcc.gov.tw/","name_eng":"","intro_eng":"","mainTypeName":"特色圖書館","cityName":"高雄市","groupTypeName":"特色圖書館","mainTypePk":"KHCC_20","version":"1.0","hitRate":0},{"name":"高雄兒童玩具圖書館","representImage":"","intro":"","address":"前金區民生二路39號","longitude":"","latitude":"","openTime":"週二~週日9:00~17:00","closeDay":"週一及國定假日休館","phone":"2610444","srcWebsite":"https://www.khcc.gov.tw/","name_eng":"","intro_eng":"","mainTypeName":"特色圖書館","cityName":"高雄市","groupTypeName":"特色圖書館","mainTypePk":"KHCC_21","version":"1.0","hitRate":2},{"name":"岡山分館","representImage":"","intro":"","address":"岡山區公園路2之1號","longitude":"","latitude":"","openTime":"週二至週六09:00~21:00\r\n週日09:00~17:00","closeDay":"週一及國定假日休館","phone":"6224518","srcWebsite":"https://www.khcc.gov.tw/","name_eng":"","intro_eng":"","mainTypeName":"特色圖書館","cityName":"高雄市","groupTypeName":"特色圖書館","mainTypePk":"KHCC_22","version":"1.0","hitRate":0},{"name":"岡山文化中心分館","representImage":"","intro":"","address":"岡山區岡山南路42號","longitude":"","latitude":"","openTime":"週二至週六09:00~21:00\r\n週日09:00~17:00","closeDay":"週一及國定假日休館","phone":"07-6262620-3轉分機2515、2516","srcWebsite":"https://www.khcc.gov.tw/","name_eng":"","intro_eng":"","mainTypeName":"特色圖書館","cityName":"高雄市","groupTypeName":"特色圖書館","mainTypePk":"KHCC_23","version":"1.0","hitRate":2},{"name":"燕巢分館","representImage":"","intro":"","address":"燕巢區西燕里中民路592號","longitude":"","latitude":"","openTime":"週二至週六09:00~21:00\r\n週日09:00~17:00","closeDay":"週一及國定假日休館","phone":"6168670\r\n6165183","srcWebsite":"https://www.khcc.gov.tw/","name_eng":"","intro_eng":"","mainTypeName":"特色圖書館","cityName":"高雄市","groupTypeName":"特色圖書館","mainTypePk":"KHCC_24","version":"1.0","hitRate":0},{"name":"橋頭分館","representImage":"","intro":"","address":"橋頭區隆豐路7號","longitude":"","latitude":"","openTime":"週二至週六09:00~21:00\r\n週日09:00~17:00","closeDay":"週一及國定假日休館","phone":"6110154","srcWebsite":"https://www.khcc.gov.tw/","name_eng":"","intro_eng":"","mainTypeName":"特色圖書館","cityName":"高雄市","groupTypeName":"特色圖書館","mainTypePk":"KHCC_25","version":"1.0","hitRate":0},{"name":"梓官分館","representImage":"","intro":"","address":"梓官區梓官路263號","longitude":"","latitude":"","openTime":"週二至週六09:00~21:00\r\n週日09:00~17:00","closeDay":"週一及國定假日休館","phone":"6170324","srcWebsite":"https://www.khcc.gov.tw/","name_eng":"","intro_eng":"","mainTypeName":"特色圖書館","cityName":"高雄市","groupTypeName":"特色圖書館","mainTypePk":"KHCC_26","version":"1.0","hitRate":0},{"name":"梓官赤東分館","representImage":"","intro":"","address":"梓官區赤崁東路48-5號2樓","longitude":"","latitude":"","openTime":"週二~週日9:00~17:00","closeDay":"週一及國定假日休館","phone":"6100990","srcWebsite":"https://www.khcc.gov.tw/","name_eng":"","intro_eng":"","mainTypeName":"特色圖書館","cityName":"高雄市","groupTypeName":"特色圖書館","mainTypePk":"KHCC_27","version":"1.0","hitRate":0},{"name":"彌陀分館","representImage":"","intro":"","address":"彌陀區漯底里四維路一之一號","longitude":"","latitude":"","openTime":"週二~週日9:00~17:00","closeDay":"週一及國定假日休館","phone":"6102317","srcWebsite":"https://www.khcc.gov.tw/","name_eng":"","intro_eng":"","mainTypeName":"特色圖書館","cityName":"高雄市","groupTypeName":"特色圖書館","mainTypePk":"KHCC_28","version":"1.0","hitRate":1},{"name":"彌陀公園分館","representImage":"","intro":"","address":"彌陀區中正路281巷50號","longitude":"","latitude":"","openTime":"週二至週六09:00~21:00\r\n週日09:00~17:00","closeDay":"週一及國定假日休館","phone":"6107928","srcWebsite":"https://www.khcc.gov.tw/","name_eng":"","intro_eng":"","mainTypeName":"特色圖書館","cityName":"高雄市","groupTypeName":"特色圖書館","mainTypePk":"KHCC_29","version":"1.0","hitRate":1},{"name":"永安分館","representImage":"","intro":"","address":"永安區永華里永華路49號","longitude":"","latitude":"","openTime":"週二至週六09:00~21:00\r\n週日09:00~17:00","closeDay":"週一及國定假日休館","phone":"6911601\r\n6910164","srcWebsite":"https://www.khcc.gov.tw/","name_eng":"","intro_eng":"","mainTypeName":"特色圖書館","cityName":"高雄市","groupTypeName":"特色圖書館","mainTypePk":"KHCC_30","version":"1.0","hitRate":0},{"name":"茄萣分館","representImage":"","intro":"","address":"茄萣區濱海路4段31巷1號","longitude":"","latitude":"","openTime":"開架書刊閱覽室：\r\n週二~週日9:00~17:00\r\n閱報室、自修室：\r\n週二至週五09:00~21:00；\r\n週六、日09:00~17:00","closeDay":"週一及國定假日休館","phone":"6900086\r\n6902297","srcWebsite":"https://www.khcc.gov.tw/","name_eng":"","intro_eng":"","mainTypeName":"特色圖書館","cityName":"高雄市","groupTypeName":"特色圖書館","mainTypePk":"KHCC_31","version":"1.0","hitRate":2},{"name":"路竹分館","representImage":"","intro":"","address":"路竹區國昌路86巷9號","longitude":"","latitude":"","openTime":"週二至週六09:00~21:00\r\n週日09:00~17:00","closeDay":"週一及國定假日休館","phone":"6979238","srcWebsite":"https://www.khcc.gov.tw/","name_eng":"","intro_eng":"","mainTypeName":"特色圖書館","cityName":"高雄市","groupTypeName":"特色圖書館","mainTypePk":"KHCC_32","version":"1.0","hitRate":0},{"name":"湖內分館","representImage":"","intro":"","address":"湖內區保生路101號","longitude":"","latitude":"","openTime":"週二至週六09:00~21:00\r\n週日09:00~17:00","closeDay":"週一及國定假日休館","phone":"6995569\r\n6998709","srcWebsite":"https://www.khcc.gov.tw/","name_eng":"","intro_eng":"","mainTypeName":"特色圖書館","cityName":"高雄市","groupTypeName":"特色圖書館","mainTypePk":"KHCC_33","version":"1.0","hitRate":0},{"name":"阿蓮分館","representImage":"","intro":"","address":"阿蓮區中正路381巷35號2樓","longitude":"","latitude":"","openTime":"週三~週日9:00~17:00","closeDay":"週一、周二及國定假日休館","phone":"6312144","srcWebsite":"https://www.khcc.gov.tw/","name_eng":"","intro_eng":"","mainTypeName":"特色圖書館","cityName":"高雄市","groupTypeName":"特色圖書館","mainTypePk":"KHCC_34","version":"1.0","hitRate":0},{"name":"田寮分館","representImage":"","intro":"","address":"田寮區南安里崗安路71-1號","longitude":"","latitude":"","openTime":"週三~週日9:00~17:00","closeDay":"週一及國定假日休館","phone":"6381878","srcWebsite":"https://www.khcc.gov.tw/","name_eng":"","intro_eng":"","mainTypeName":"特色圖書館","cityName":"高雄市","groupTypeName":"特色圖書館","mainTypePk":"KHCC_35","version":"1.0","hitRate":0},{"name":"鳳山分館","representImage":"","intro":"","address":"鳳山區林森路141號","longitude":"","latitude":"","openTime":"開架書刊閱覽室：\r\n週二~週日9:00~17:00\r\n閱報室、自修室：\r\n週二至週五09:00~21:00；\r\n週六、日09:00~17:00","closeDay":"週一及國定假日休館","phone":"8110084\r\n8110531","srcWebsite":"https://www.khcc.gov.tw/","name_eng":"","intro_eng":"","mainTypeName":"特色圖書館","cityName":"高雄市","groupTypeName":"特色圖書館","mainTypePk":"KHCC_36","version":"1.0","hitRate":0},{"name":"鳳山二館","representImage":"","intro":"","address":"鳳山區自強一路119巷75號","longitude":"","latitude":"","openTime":"週二至週六09:00~21:00\r\n週日09:00~17:00","closeDay":"週一及國定假日休館","phone":"8415875\r\n8415876","srcWebsite":"https://www.khcc.gov.tw/","name_eng":"","intro_eng":"","mainTypeName":"特色圖書館","cityName":"高雄市","groupTypeName":"特色圖書館","mainTypePk":"KHCC_37","version":"1.0","hitRate":0},{"name":"鳳山曹公分館","representImage":"","intro":"","address":"鳳山區曹公路23號","longitude":"","latitude":"","openTime":"週二至週六09:00~21:00\r\n週日09:00~17:00","closeDay":"週一及國定假日休館","phone":"7468809","srcWebsite":"https://www.khcc.gov.tw/","name_eng":"","intro_eng":"","mainTypeName":"特色圖書館","cityName":"高雄市","groupTypeName":"特色圖書館","mainTypePk":"KHCC_38","version":"1.0","hitRate":0},{"name":"大東藝術圖書館","representImage":"","intro":"","address":"鳳山區光遠路161號","longitude":"","latitude":"","openTime":"週二~週六10:00~21:00\r\n週日、國定假日10:00~17:00","closeDay":"週一、除夕休館","phone":"743-0011#1147~1150","srcWebsite":"https://www.khcc.gov.tw/","name_eng":"","intro_eng":"","mainTypeName":"特色圖書館","cityName":"高雄市","groupTypeName":"特色圖書館","mainTypePk":"KHCC_39","version":"1.0","hitRate":1},{"name":"大樹分館","representImage":"","intro":"","address":"大樹區中興西路50號","longitude":"","latitude":"","openTime":"週二至週六09:00~21:00\r\n週日09:00~17:00","closeDay":"週一及國定假日休館","phone":"6517634","srcWebsite":"https://www.khcc.gov.tw/","name_eng":"","intro_eng":"","mainTypeName":"特色圖書館","cityName":"高雄市","groupTypeName":"特色圖書館","mainTypePk":"KHCC_40","version":"1.0","hitRate":0},{"name":"大樹二館","representImage":"","intro":"","address":"大樹區久堂里久堂路97之1號","longitude":"","latitude":"","openTime":"週二至週六09:00~21:00\r\n週日09:00~17:00","closeDay":"週一及國定假日休館","phone":"6519281\r\n6525274","srcWebsite":"https://www.khcc.gov.tw/","name_eng":"","intro_eng":"","mainTypeName":"特色圖書館","cityName":"高雄市","groupTypeName":"特色圖書館","mainTypePk":"KHCC_41","version":"1.0","hitRate":0},{"name":"大樹三館","representImage":"","intro":"","address":"大樹區溪埔里溪埔路3巷60之1號二樓","longitude":"","latitude":"","openTime":"週三~週日9:00~17:00","closeDay":"週一及國定假日休館","phone":"6564272","srcWebsite":"https://www.khcc.gov.tw/","name_eng":"","intro_eng":"","mainTypeName":"特色圖書館","cityName":"高雄市","groupTypeName":"特色圖書館","mainTypePk":"KHCC_42","version":"1.0","hitRate":0},{"name":"仁武分館","representImage":"","intro":"","address":"仁武區仁武里中正路80號4樓","longitude":"","latitude":"","openTime":"週二~四9:00~21:00\r\n週五~日9:00~17:00","closeDay":"週一及國定假日休館","phone":"3710955","srcWebsite":"https://www.khcc.gov.tw/","name_eng":"","intro_eng":"","mainTypeName":"特色圖書館","cityName":"高雄市","groupTypeName":"特色圖書館","mainTypePk":"KHCC_43","version":"1.0","hitRate":0},{"name":"澄觀分館","representImage":"","intro":"","address":"仁武區澄仁路200號（澄觀公園內）","longitude":"","latitude":"","openTime":"週二~週日9:00~17:00","closeDay":"週一及國定假日休館","phone":"3747592\r\n3748398","srcWebsite":"https://www.khcc.gov.tw/","name_eng":"","intro_eng":"","mainTypeName":"特色圖書館","cityName":"高雄市","groupTypeName":"特色圖書館","mainTypePk":"KHCC_44","version":"1.0","hitRate":0},{"name":"大社分館","representImage":"","intro":"","address":"大社區自強街11號","longitude":"","latitude":"","openTime":"開架書刊閱覽室：\r\n週三、週五、週六、週日 9:00~17:00\r\n週二、週四 11:00~19:00\r\n閱報室、自修室：\r\n週二至週五 08:00~21:00 \r\n週六至週日 09:00~17:00","closeDay":"週一及國定假日休館","phone":"3519582\r\n3533809","srcWebsite":"https://www.khcc.gov.tw/","name_eng":"","intro_eng":"","mainTypeName":"特色圖書館","cityName":"高雄市","groupTypeName":"特色圖書館","mainTypePk":"KHCC_45","version":"1.0","hitRate":0},{"name":"鳥松分館","representImage":"","intro":"","address":"鳥松區大仁北路10號","longitude":"","latitude":"","openTime":"開架書刊閱覽室：\r\n週二~週日9:00~17:00\r\n閱報室、自修室：\r\n週二至週五09:00~21:00；\r\n週六、日09:00~17:00","closeDay":"週一及國定假日休館","phone":"731-4809\r\n731-4954","srcWebsite":"https://www.khcc.gov.tw/","name_eng":"","intro_eng":"","mainTypeName":"特色圖書館","cityName":"高雄市","groupTypeName":"特色圖書館","mainTypePk":"KHCC_46","version":"1.0","hitRate":0},{"name":"大寮分館","representImage":"","intro":"","address":"大寮區進學路133號","longitude":"","latitude":"","openTime":"週二至週六09:00~21:00\r\n週日09:00~17:00","closeDay":"週一及國定假日休館","phone":"782-6855","srcWebsite":"https://www.khcc.gov.tw/","name_eng":"","intro_eng":"","mainTypeName":"特色圖書館","cityName":"高雄市","groupTypeName":"特色圖書館","mainTypePk":"KHCC_47","version":"1.0","hitRate":0},{"name":"林園分館","representImage":"","intro":"","address":"林園區林園北路236號","longitude":"","latitude":"","openTime":"開架書刊閱覽室：\r\n週二~週日9:00~17:00\r\n(林園親子圖書室\r\n週二~週五9:00~21:00 週六日9:00~17:00)\r\n閱報室、自修室：\r\n週二至週五09:00~21:00；\r\n週六、日09:00~17:00","closeDay":"週一及國定假日休館","phone":"6431419","srcWebsite":"https://www.khcc.gov.tw/","name_eng":"","intro_eng":"","mainTypeName":"特色圖書館","cityName":"高雄市","groupTypeName":"特色圖書館","mainTypePk":"KHCC_48","version":"1.0","hitRate":0},{"name":"林園二館","representImage":"","intro":"","address":"林園區西溪路70號2樓","longitude":"","latitude":"","openTime":"週二~週日9:00~17:00","closeDay":"週一及國定假日休館","phone":"6434731","srcWebsite":"https://www.khcc.gov.tw/","name_eng":"","intro_eng":"","mainTypeName":"特色圖書館","cityName":"高雄市","groupTypeName":"特色圖書館","mainTypePk":"KHCC_49","version":"1.0","hitRate":0},{"name":"旗山分館","representImage":"","intro":"","address":"旗山區延平一路499號","longitude":"","latitude":"","openTime":"開架書刊閱覽室：\r\n週二~週日9:00~17:00\r\n閱報室、自修室：\r\n週二至週五08:00~21:00；\r\n週六、週日09:00~17:00","closeDay":"週一及國定假日休館","phone":"6626536","srcWebsite":"https://www.khcc.gov.tw/","name_eng":"","intro_eng":"","mainTypeName":"特色圖書館","cityName":"高雄市","groupTypeName":"特色圖書館","mainTypePk":"KHCC_50","version":"1.0","hitRate":0},{"name":"美濃分館","representImage":"","intro":"","address":"美濃區美中路256號","longitude":"","latitude":"","openTime":"週二~週日9:00~17:00","closeDay":"週一及國定假日休館","phone":"6817002","srcWebsite":"https://www.khcc.gov.tw/","name_eng":"","intro_eng":"","mainTypeName":"特色圖書館","cityName":"高雄市","groupTypeName":"特色圖書館","mainTypePk":"KHCC_51","version":"1.0","hitRate":0},{"name":"甲仙分館","representImage":"","intro":"","address":"甲仙區和安里中山路48號","longitude":"","latitude":"","openTime":"週三~週日9:00~17:00","closeDay":"週一、周二及國定假日休館","phone":"6751773","srcWebsite":"https://www.khcc.gov.tw/","name_eng":"","intro_eng":"","mainTypeName":"特色圖書館","cityName":"高雄市","groupTypeName":"特色圖書館","mainTypePk":"KHCC_52","version":"1.0","hitRate":0},{"name":"內門分館","representImage":"","intro":"","address":"內門區觀亭里中正路115巷18-1號","longitude":"","latitude":"","openTime":"週三~週日9:00~17:00","closeDay":"週一、周二及國定假日休館","phone":"6671214","srcWebsite":"https://www.khcc.gov.tw/","name_eng":"","intro_eng":"","mainTypeName":"特色圖書館","cityName":"高雄市","groupTypeName":"特色圖書館","mainTypePk":"KHCC_53","version":"1.0","hitRate":0},{"name":"內門內埔分館","representImage":"","intro":"","address":"內門區內豐里內埔140-1號","longitude":"","latitude":"","openTime":"週三~週日9:00~17:00","closeDay":"週一、周二及國定假日休館","phone":"6674467","srcWebsite":"https://www.khcc.gov.tw/","name_eng":"","intro_eng":"","mainTypeName":"特色圖書館","cityName":"高雄市","groupTypeName":"特色圖書館","mainTypePk":"KHCC_54","version":"1.0","hitRate":0},{"name":"內門木柵分館","representImage":"","intro":"","address":"內門區木柵里木柵3-1號","longitude":"","latitude":"","openTime":"週三~週日9:00~17:00","closeDay":"週一、周二及國定假日休館","phone":"6681009","srcWebsite":"https://www.khcc.gov.tw/","name_eng":"","intro_eng":"","mainTypeName":"特色圖書館","cityName":"高雄市","groupTypeName":"特色圖書館","mainTypePk":"KHCC_55","version":"1.0","hitRate":0},{"name":"內門溝坪分館","representImage":"","intro":"","address":"內門區永興里頂庄9-1號","longitude":"","latitude":"","openTime":"週三~週日9:00~17:00","closeDay":"週一、周二及國定假日休館","phone":"6602263","srcWebsite":"https://www.khcc.gov.tw/","name_eng":"","intro_eng":"","mainTypeName":"特色圖書館","cityName":"高雄市","groupTypeName":"特色圖書館","mainTypePk":"KHCC_56","version":"1.0","hitRate":0},{"name":"杉林分館","representImage":"","intro":"","address":"杉林區上平里山仙路75號","longitude":"","latitude":"","openTime":"週二~週日9:00~17:00","closeDay":"週一及國定假日休館","phone":"6771687","srcWebsite":"https://www.khcc.gov.tw/","name_eng":"","intro_eng":"","mainTypeName":"特色圖書館","cityName":"高雄市","groupTypeName":"特色圖書館","mainTypePk":"KHCC_57","version":"1.0","hitRate":0},{"name":"茂林分館","representImage":"","intro":"","address":"茂林區1鄰8-3號","longitude":"","latitude":"","openTime":"週三~週日9:00~17:00","closeDay":"週一、周二及國定假日休館","phone":"6801340","srcWebsite":"https://www.khcc.gov.tw/","name_eng":"","intro_eng":"","mainTypeName":"特色圖書館","cityName":"高雄市","groupTypeName":"特色圖書館","mainTypePk":"KHCC_58","version":"1.0","hitRate":0},{"name":"六龜分館","representImage":"","intro":"","address":"六龜區光復路70號","longitude":"","latitude":"","openTime":"開架書刊閱覽室：\r\n週二~週日9:00~17:00\r\n閱報室、自修室：\r\n週二至週五09:00~21:00；\r\n週六、日09:00~17:00","closeDay":"週一及國定假日休館","phone":"6892105","srcWebsite":"https://www.khcc.gov.tw/","name_eng":"","intro_eng":"","mainTypeName":"特色圖書館","cityName":"高雄市","groupTypeName":"特色圖書館","mainTypePk":"KHCC_59","version":"1.0","hitRate":0},{"name":"那瑪夏分館","representImage":"","intro":"","address":"那瑪夏區瑪雅里平和巷170號","longitude":"","latitude":"","openTime":"週三~週日9:00~17:00","closeDay":"週一、周二及國定假日休館","phone":"6701372","srcWebsite":"https://www.khcc.gov.tw/","name_eng":"","intro_eng":"","mainTypeName":"特色圖書館","cityName":"高雄市","groupTypeName":"特色圖書館","mainTypePk":"KHCC_60","version":"1.0","hitRate":0},{"name":"桃源分館","representImage":"","intro":"","address":"桃源區桃源里南進巷179號","longitude":"","latitude":"","openTime":"週三~週日9:00~17:00","closeDay":"週一、周二及國定假日休館","phone":"6861268","srcWebsite":"https://www.khcc.gov.tw/","name_eng":"","intro_eng":"","mainTypeName":"特色圖書館","cityName":"高雄市","groupTypeName":"特色圖書館","mainTypePk":"KHCC_61","version":"1.0","hitRate":0},{"name":"空大圖書館(合作館)","representImage":"","intro":"","address":"小港區大業北路436號","longitude":"","latitude":"","openTime":"書庫區：\r\n週二至週五08:00-1200、13:30-17:30\r\n週六至週日09:00-17:00 \r\nK書中心、開報區：\r\n週二至週日08:00-22:00 ","closeDay":"週一休館","phone":"8012008#3202","srcWebsite":"https://www.khcc.gov.tw/","name_eng":"","intro_eng":"","mainTypeName":"特色圖書館","cityName":"高雄市","groupTypeName":"特色圖書館","mainTypePk":"KHCC_62","version":"1.0","hitRate":0},{"name":"鳳山婦幼(合作館)","representImage":"","intro":"","address":"鳳山區光復路二段120號","longitude":"","latitude":"","openTime":"親子共讀室、資源室：\r\n週二至週日  09:00-12:00、13:30-17:00\r\n成人暨兒童圖書室：\r\n週二至週日  09:00-17:00\r\n青少年圖書室：\r\n週二至週五  16:00-21:00\r\n週六  09:00-12:00、13:30-21:00\r\n週日  09:00-12:00、13:30-17:00\r\n寒暑假全日開放，延長開放至21:30\r\n閱覽室：\r\n週二至週五  08:30-16:30 , 17:00-21:00\r\n週六  08:30-21：00 週日至 17:00\r\n寒暑假全日開放，延長開放至21:30","closeDay":"週一及國定假日休館","phone":"7466900#270,249","srcWebsite":"https://www.khcc.gov.tw/","name_eng":"","intro_eng":"","mainTypeName":"特色圖書館","cityName":"高雄市","groupTypeName":"特色圖書館","mainTypePk":"KHCC_63","version":"1.0","hitRate":0},{"name":"旗山社福(合作館)","representImage":"","intro":"","address":"旗山區中正路199號","longitude":"","latitude":"","openTime":"週二至週五 09:00-12:00、14:00-17:00、19:00-21:00\r\n週六至週日:09:00-17:00","closeDay":"週一及國定假日休館","phone":"6617464","srcWebsite":"https://www.khcc.gov.tw/","name_eng":"","intro_eng":"","mainTypeName":"特色圖書館","cityName":"高雄市","groupTypeName":"特色圖書館","mainTypePk":"KHCC_64","version":"1.0","hitRate":0},{"name":"河堤分館","representImage":"","intro":"","address":"民族路與裕誠路交叉口","longitude":"","latitude":"","openTime":"週二至週六09:00~21:00  週日09:00~17:00","closeDay":"週一及國定假日休館","phone":"07-3412537","srcWebsite":"https://www.khcc.gov.tw/","name_eng":"","intro_eng":"","mainTypeName":"特色圖書館","cityName":"高雄市","groupTypeName":"特色圖書館","mainTypePk":"KHCC_65","version":"1.0","hitRate":0},{"name":"李科永紀念圖書館(籌備中)","representImage":"","intro":"","address":"前金區民生二路中央公園內","longitude":"","latitude":"","openTime":"","closeDay":"","phone":"","srcWebsite":"https://www.khcc.gov.tw/","name_eng":"","intro_eng":"","mainTypeName":"特色圖書館","cityName":"高雄市","groupTypeName":"特色圖書館","mainTypePk":"KHCC_66","version":"1.0","hitRate":0},{"name":"新總館 ","representImage":"","intro":"","address":"前鎮區新光路61號 ","longitude":"","latitude":"","openTime":"AM10:00 ~ PM10:00","closeDay":"週一、除夕閉館","phone":"07-5360238","srcWebsite":"https://www.khcc.gov.tw/","name_eng":"","intro_eng":"","mainTypeName":"特色圖書館","cityName":"高雄市","groupTypeName":"特色圖書館","mainTypePk":"KHCC_67","version":"1.0","hitRate":0},{"name":"高雄文學館","representImage":"","intro":"","address":"前金區民生二路39號","longitude":"","latitude":"","openTime":"週二至週六 09:00~21:00\r\n週日 09:00~17:00","closeDay":"週一及國定假日休館","phone":"2611706-7","srcWebsite":"https://www.khcc.gov.tw/","name_eng":"","intro_eng":"","mainTypeName":"特色圖書館","cityName":"高雄市","groupTypeName":"特色圖書館","mainTypePk":"KHCC_2","version":"1.0","hitRate":2},{"name":"鼓山分館","representImage":"","intro":"","address":"鼓山區鼓山三路19-3號","longitude":"","latitude":"","openTime":"開架書刊閱覽室：\r\n週三、週五、週六、週日 9:00~17:00\r\n週二、週四 11:00~19:00\r\n閱報室、自修室：\r\n週二至週五 08:00~21:00 \r\n週六至週日 09:00~17:00","closeDay":"週一及國定假日休館","phone":"5515554\r\n5615393","srcWebsite":"https://www.khcc.gov.tw/","name_eng":"","intro_eng":"","mainTypeName":"特色圖書館","cityName":"高雄市","groupTypeName":"特色圖書館","mainTypePk":"KHCC_3","version":"1.0","hitRate":0},{"name":"旗津分館","representImage":"","intro":"","address":"旗津區中洲三路528號","longitude":"","latitude":"","openTime":"開架書刊閱覽室：\r\n週三、週五、週六、週日 9:00~17:00\r\n週二、週四 11:00~19:00\r\n閱報室、自修室：\r\n週二至週五 08:00~21:00 \r\n週六至週日 09:00~17:00 ","closeDay":"週一及國定假日休館","phone":"5715785","srcWebsite":"https://www.khcc.gov.tw/","name_eng":"","intro_eng":"","mainTypeName":"特色圖書館","cityName":"高雄市","groupTypeName":"特色圖書館","mainTypePk":"KHCC_4","version":"1.0","hitRate":0},{"name":"右昌分館","representImage":"","intro":"","address":"楠梓區藍昌路72號","longitude":"","latitude":"","openTime":"開架書刊閱覽室：\r\n週三、週五、週六、週日 9:00~17:00\r\n週二、週四 11:00~19:00\r\n閱報室、自修室：\r\n週二至週五 08:00~21:00 \r\n週六至週日 09:00~17:00","closeDay":"週一及國定假日休館","phone":"3633282\r\n3631338","srcWebsite":"https://www.khcc.gov.tw/","name_eng":"","intro_eng":"","mainTypeName":"特色圖書館","cityName":"高雄市","groupTypeName":"特色圖書館","mainTypePk":"KHCC_5","version":"1.0","hitRate":0},{"name":"左營分館","representImage":"","intro":"","address":"左營區自助新村333號之17號","longitude":"","latitude":"","openTime":"週二至週六09:00~21:00\r\n週日09:00~17:00","closeDay":"週一及國定假日休館","phone":"5839802\r\n5820514","srcWebsite":"https://www.khcc.gov.tw/","name_eng":"","intro_eng":"","mainTypeName":"特色圖書館","cityName":"高雄市","groupTypeName":"特色圖書館","mainTypePk":"KHCC_6","version":"1.0","hitRate":0},{"name":"三民分館","representImage":"","intro":"","address":"三民區十全一路220號","longitude":"","latitude":"","openTime":"開架書刊閱覽室：\r\n週三、週五、週六、週日 9:00~17:00\r\n週二、週四 11:00~19:00\r\n閱報室、自修室：\r\n週二至週五 08:00~21:00 \r\n週六至週日 09:00~17:00","closeDay":"週一及國定假日休館","phone":"3225528\r\n3225529","srcWebsite":"https://www.khcc.gov.tw/","name_eng":"","intro_eng":"","mainTypeName":"特色圖書館","cityName":"高雄市","groupTypeName":"特色圖書館","mainTypePk":"KHCC_7","version":"1.0","hitRate":0},{"name":"新興分館","representImage":"","intro":"","address":"新興區中正三路34號3樓","longitude":"","latitude":"","openTime":"開架書刊閱覽室：\r\n週三、週五、週六、週日 9:00~17:00\r\n週二、週四 11:00~19:00\r\n閱報室：\r\n週二至週五 08:00~21:00 \r\n週六至週日 09:00~17:00","closeDay":"週一及國定假日休館","phone":"2372563\r\n2353889","srcWebsite":"https://www.khcc.gov.tw/","name_eng":"","intro_eng":"","mainTypeName":"特色圖書館","cityName":"高雄市","groupTypeName":"特色圖書館","mainTypePk":"KHCC_8","version":"1.0","hitRate":0},{"name":"新興民眾閱覽室","representImage":"","intro":"","address":"新興區民生一路271號","longitude":"","latitude":"","openTime":"開架書刊閱覽室：\r\n週三、週五、週六、週日 9:00~17:00\r\n週二、週四 11:00~19:00\r\n閱報室、自修室：\r\n週二至週五 08:00~21:00 \r\n週六至週日 09:00~17:00","closeDay":"週一及國定假日休館","phone":"2411805","srcWebsite":"https://www.khcc.gov.tw/","name_eng":"","intro_eng":"","mainTypeName":"特色圖書館","cityName":"高雄市","groupTypeName":"特色圖書館","mainTypePk":"KHCC_9","version":"1.0","hitRate":0},{"name":"臺北市立圖書館中崙分館","representImage":"https://cloud.culture.tw/e_new_upload/cms/image/A0/B0/C0/D12/E174/F21/ea936d16-17d9-4fbf-a7b9-a9c6622da16d.jpg","intro":"臺北市立圖書館中崙分館為中華民國第一所以漫畫為特藏的公共圖書館，座落於台北市松山區長安東路二段229號7至10樓，館藏特色為漫畫，館舍自地上七樓至十樓。與台北市政府消防局中崙分隊共用大樓。\r\n1998年7月24日，中崙分館啟用，收藏漫畫相關物品，包含圖書、期刊、影音資料、剪輯資料與本土漫畫等。為了防止兒童讀者接觸到不適合兒童閱讀的漫畫，中崙分館館藏漫畫單行本分為三級：普通級、輔導級、限制級。普通級與輔導級漫畫，開放讀者自由取閱。限制級漫畫集中放在綜合服務台後方書櫃，讀者必須向綜合服務台登記取閱，未滿18歲者不得借閱。\r\n\r\n圖片擷取自臺北市立圖書館官網。\r\n\r\n本資料由文化部委託台灣閱讀推薦協會建構，建立日期為107年3月12日。","address":"臺北市長安東路二段229號7-10樓(請由8樓進出)","longitude":"121.544833","latitude":"25.048305","openTime":"週二至週六：08:30-21:00，週日、週一：09:00-17:00","phone":"02-87736858","email":"a14@email.tpml.edu.tw","headCityName":"","name_eng":"","intro_eng":"","mainTypeName":"特色圖書館","cityName":"臺北市  松山區","groupTypeName":"特色圖書館","mainTypePk":"5aa648d4aaa31a948b9c37e5","version":"1.0","hitRate":2007},{"name":"親子美育數位圖書館","representImage":"https://cloud.culture.tw/e_new_upload/cms/image/A0/B0/C0/D12/E176/F484/4e3427fc-07db-43b0-8078-242d9d1e2c33.jpg","intro":"成立於民國103年11月之公共圖書館，館藏特色以親子美育及藝術類圖書資料為主，館內提供數位媒體及互動裝置，充分發揮美學教育的意義與價值，在潛移默化中傳遞及欣賞生活中的美 。\r\n\r\n圖片擷取自臺北市立圖書館官網。\r\n\r\n本資料由文化部委託台灣閱讀推薦協會建構，建立日期為107年3月12日。","address":"臺北市南港區研究院路2段61巷15號1-2樓","longitude":"121.592271","latitude":"25.054501","openTime":"9:00-17:00","phone":"02-26518163","email":"i22@email.tpml.edu.tw","headCityName":"","name_eng":"","intro_eng":"","mainTypeName":"特色圖書館","cityName":"臺北市  南港區","groupTypeName":"特色圖書館","mainTypePk":"5aa64f6aaaa31a948b9c37e6","version":"1.0","hitRate":984},{"name":"臺北市立圖書館北投分館","representImage":"https://cloud.culture.tw/e_new_upload/cms/image/A0/B0/C0/D12/E180/F806/96b2552f-5b5c-4853-9fbe-6b2747e6dc41.jpg","intro":"臺灣首座綠建築圖書館，座落於林木茂密、生態環境豐富的北投公園內，與溫泉博物館比鄰，地下一層、地上二層，總面積650坪的圖書館。\r\n\r\n圖片擷取自臺北市立圖書館北投分館臉書粉絲專頁。\r\n\r\n本資料由文化部委託台灣閱讀推薦協會建構，建立日期為107年3月12日。","address":"臺北市北投區光明路251號","longitude":"121.469241","latitude":"25.119413","openTime":"週二至週六：8:30-21:00，週日、週一：9:00-17:00","phone":"(02)28977682","email":"l11@email.tpml.edu.tw","headCityName":"","name_eng":"","intro_eng":"","mainTypeName":"特色圖書館","cityName":"臺北市  北投區","groupTypeName":"特色圖書館","mainTypePk":"5aa651486e5ec7e8691093de","version":"1.0","hitRate":1078},{"name":"臺北市立圖書館啟明分館","representImage":"https://cloud.culture.tw/e_new_upload/cms/image/A0/B0/C0/D12/E181/F726/aa6513d4-c1b4-401a-80c4-986ece741450.jpg","intro":"啟明分館係臺北市政府考量視障者之需要，而決定於啟明學校遷校後原址改設，並於民國83年9月30日成立，為全國第一所視障專用圖書館，提供視障朋友進修、學習之場所外並成立視障專書資料室，蒐集國內外視障相關文獻、剪報等供研究視障者參考。\r\n啟明分館除希望開拓盲界文化資源、強化盲人圖書館功能，提昇盲胞文化生活品質，期使激發視障人發揮潛能、積極參與群體社會外，更希望藉由視障資訊之提供能使一般民眾更了解視障朋友。\r\n\r\n圖片擷取自臺北市立圖書館官網。\r\n\r\n本資料由文化部委託台灣閱讀推薦協會建構，建立日期為107年3月12日。","address":"臺北市松山區敦化北路155巷76號","longitude":"121.544833","latitude":"25.048305","openTime":"09:00-17:00","phone":"(02)25148443","email":"a15@email.tpml.edu.tw","headCityName":"","name_eng":"","intro_eng":"","mainTypeName":"特色圖書館","cityName":"臺北市  松山區","groupTypeName":"特色圖書館","mainTypePk":"5aa65398aaa31a948b9c37e7","version":"1.0","hitRate":1219},{"name":"新北市青少年圖書館","representImage":"https://cloud.culture.tw/e_new_upload/cms/image/A0/B0/C0/D13/E174/F178/fd5cadd7-75c4-4f06-b720-9ccf151282b8.jpg","intro":"提供青少年揮灑青春、成年人溫習青春的角落。\r\n在圖書館玩密室脫逃？你沒看錯，新店青少年圖書館是全國第一座以青少年為主題規劃設計的圖書館，讓圖書館不僅是兼具知性與人文的閱讀空間，還有著趣味及娛樂，更貼近青少年朋友的心靈。\r\n\r\n圖片擷取自新北市立圖書館官網。 \r\n\r\n本資料由文化部委託台灣閱讀推薦協會建構，建立日期為107年3月13日。","address":"新北市新店區安康路二段151號","longitude":"121.520247","latitude":"24.978433","openTime":"週二至週六：8:30-21:00，週日、週一：8:00-17:00","phone":"(02)22128905","email":"","headCityName":"","name_eng":"","intro_eng":"","mainTypeName":"特色圖書館","cityName":"新北市  新店區","groupTypeName":"特色圖書館","mainTypePk":"5aa79c7eaaa31a948b9c37e8","version":"1.0","hitRate":1863},{"name":"新北市立圖書館蘆洲長安分館","representImage":"https://cloud.culture.tw/e_new_upload/cms/image/A0/B0/C0/D13/E175/F274/9e9c0525-6a45-4bcf-acfe-d91dc278a23c.jpg","intro":"位在蘆洲的長安分館，民國102年7月整修完畢，大門入口以及服務檯皆以太空艙為意象。館內的設施規劃以自然天文科學為主題，空間設計活潑互動性高，是一座兼具休閒性、娛樂性與教育的主題圖書館，進入圖書館就像是進入太空世界，可以一站一站的探險。\r\n長安分館的館藏特色就是自然科學，兩萬多本館藏，光科學類就八千冊，是新北市圖書館中科學類藏書量最多的一館。放著藏書的十五個書架，以飛碟為中心，向外呈現放射狀，讓讀者在圖書館內任何一個角度，都有置身太空中的錯覺。\r\n\r\n圖片擷取自新北市立圖書館官網。 \r\n\r\n本資料由文化部委託台灣閱讀推薦協會建構，建立日期為107年3月13日。","address":"新北市蘆洲區長安街96號3樓","longitude":"121.47153","latitude":"25.086891","openTime":"週二至週六：8:30-21:00，週日、週一：8:00-17:00（休館日為每月最後一個週四、國定假日）","phone":"(02)28475873","email":"","headCityName":"","name_eng":"","intro_eng":"","mainTypeName":"特色圖書館","cityName":"新北市  蘆洲區","groupTypeName":"特色圖書館","mainTypePk":"5aa79e30aaa31a948b9c37e9","version":"1.0","hitRate":1608},{"name":"新北市立圖書館總館","representImage":"https://cloud.culture.tw/e_new_upload/cms/image/A0/B0/C0/D13/E214/F577/889a4ba4-21ef-4113-90b8-19dba214f6cb.jpg","intro":"新北市立圖書館，建築體北面是『堆疊書櫃』，建築南面則用橫向長條透明窗布滿牆面，遠遠看去就是『數位條碼』，書和條碼的組合，傳統與科技融合的新北市立圖書館，2015年5月開幕，以知識領航者之姿向世人宣告，將成為北台灣文化新地標。\r\n新北市立圖書館有全國首創的二十四小時不打烊服務，讓夜貓族晚上也有安靜且舒服的閱讀去處，開放一樓和四樓。一樓是二十四小時自助取還書區，新書展示區，可以翻閱各種新上架的好書，甚至規劃不同主題的書展，讓讀者能夠隨著書本來一趟心靈旅行。\r\n四樓除了考生最愛的自修室，另外還有漫畫區也是二十小時開放，超過四千多本的漫畫免費閱讀，也陳列各式玩具公仔，想想看，在你看書時，有最受歡迎的海賊王、老皮等人物陪著你，漫長的夜晚一點也不會孤單。\r\n\r\n圖片擷取自新北市立圖書館官網。 \r\n\r\n本資料由文化部委託台灣閱讀推薦協會建構，建立日期為107年3月13日。","address":"新北市板橋區貴興路139號","longitude":"121.45416","latitude":"25.010349","openTime":"週日、週一 8:30-17:00(16:30停止借還書)\r　\n週二至週六 8:30-21:00(20:30停止借還書)\r\n　　每月最後一週之週四、國定假日休館","phone":"(02)29537868","email":"","headCityName":"","name_eng":"","intro_eng":"","mainTypeName":"特色圖書館","cityName":"新北市  板橋區","groupTypeName":"特色圖書館","mainTypePk":"5aa7d55eaaa31a948b9c37ea","version":"1.0","hitRate":8831},{"name":"桃園市立圖書館大溪分館","representImage":"https://cloud.culture.tw/e_new_upload/cms/image/A0/B0/C0/D14/E201/F136/287089b4-45da-49fe-9f3e-5dedd3cc89d9.jpg","intro":"本館成立於民國65年5月4日，早期位於大溪鎮仁愛路2-1號2樓（中正堂二樓），至民國70年5月則遷移至大溪鎮普濟路11號3樓（大溪鎮公所3樓）。民國85年1月圖書館管理作業電腦化啟用。民國88年5月9日親子活動心成立。民國90年12月29日圖書館搬遷至大溪鎮普濟路33號（舊憲兵隊宿舍）。因本縣於103年12月25日正式升格為直轄市，本館正式更名為「桃園市立圖書館大溪分館」。\r\n\r\n圖片擷取自桃園市立圖書館官網。 \r\n\r\n本資料由文化部委託台灣閱讀推薦協會建構，建立日期為107年3月14日。","address":"桃園市大溪區普濟路33號","longitude":"121.287083","latitude":"24.880611","openTime":"週二至週六：8:30-21:00，週日、週一：8:00-17:00。國定假日及每月最後一個星期四","phone":"(03)3885501","email":"","headCityName":"","name_eng":"","intro_eng":"","mainTypeName":"特色圖書館","cityName":"桃園市  大溪區","groupTypeName":"特色圖書館","mainTypePk":"5aa90f0a6e5ec7e8691093e3","version":"1.0","hitRate":1318},{"name":"桃園市立圖書館大湳分館","representImage":"https://cloud.culture.tw/e_new_upload/cms/image/A0/B0/C0/D14/E224/F647/a15ea0cc-6339-46f2-babc-2dea432473af.jpg","intro":"八德中正堂建於民國53年，見證50年代軍方戲院文化及當地歷史集體記憶，並呈現當時軍工建築的特色，桃園縣政府於96年9月29日公告登錄為歷史建築。\r\n本歷史建築修復後由桃園市立圖書館大湳分館進駐使用，做為藝文推展及在地居民終身學習場所，發揮歷史建築保存及活化再利用功能，落實文化資產保存目的。\r\n\r\n\r\n圖片擷取自桃園市八德區公所網站。 \r\n\r\n本資料由文化部委託台灣閱讀推薦協會建構，建立日期為107年3月14日。","address":"桃園市八德區重慶街53巷2號","longitude":"121.291245","latitude":"24.946905","openTime":"週二至週六：8:30-21:00，週日、週一：8:00-17:00。國定假日及每月最後一個星期四休館","phone":"(03)3664614 #13、14","email":"","headCityName":"","name_eng":"","intro_eng":"","mainTypeName":"特色圖書館","cityName":"桃園市  八德區","groupTypeName":"特色圖書館","mainTypePk":"5aa9104d6e5ec7e8691093e4","version":"1.0","hitRate":2257},{"name":"臺中市立圖書館清水分館","representImage":"https://cloud.culture.tw/e_new_upload/cms/image/A0/B0/C0/D14/E202/F593/00f68735-3626-492d-bd78-c0d8e3b633a6.jpg","intro":"清水分館館藏特色係以「推理文學」為代表，專區成立於民國105年11月8日，旨在推廣推理文學閱讀風氣。推理小說屬類型文學，除強調邏輯思維、重視劇情架構外，並能兼具小說的文學性與解謎的娛樂性。經統計喜好推理小說的讀者年齡層分佈廣泛，含括小學生到銀髮族，藉由懸疑、推理這種文體，期盼讀者獲得更多具有知識性及思考性的內容。\r\n清水分館是目前臺中市第一間也是唯一設置【推理文學】專區之公共圖書館。專區包含推理相關之文學書籍、視聽資料、漫畫等館藏，現計約二千二百冊。且為服務不同族群，除設置一般推理專區供國中生以上讀者閱讀外，更特別成立【兒童益智推理專區】擺放適合兒童閱讀的推理童書，讓孩子從小就有機會訓練觀察力及邏輯推理能力！\r\n\r\n圖片擷取自臺中市立圖書館清水分館臉書粉絲專頁。 \r\n\r\n本資料由文化部委託台灣閱讀推薦協會建構，建立日期為107年3月14日。","address":"台中市清水區鎮政路50號","longitude":"120.585464","latitude":"24.301983","openTime":"週二至週六：8:30-21:00，週日：8:00-17:30。星期一及國定例假日休館","phone":"(04)26271597","email":"","headCityName":"","name_eng":"","intro_eng":"","mainTypeName":"特色圖書館","cityName":"臺中市  清水區","groupTypeName":"特色圖書館","mainTypePk":"5aa9147caaa31a948b9c37eb","version":"1.0","hitRate":1297},{"name":"臺東縣政府文化處圖書館","representImage":"https://cloud.culture.tw/e_new_upload/cms/image/A0/B0/C0/D14/E210/F120/83d63d11-d7f0-4564-b44c-107db18e93bb.JPG","intro":"以「南島映像文化」為主題的特色圖書館，為臺東民眾打造一個感受南島語族文化的書香天地。\r\n圖書館也是一種亙古的「媒體」，它承載在地泥土的歷史與文化，涵納了名為「書本」的知識遺產，進而也成為傳遞訊息的使者，漸進蘊含了帶給讀者的訊息。本館希望讀者也能像鐘擺一樣不斷來回造訪的地方，因為圖書館盈滿精彩的故事，除了暢銷書冊外，更有豐富的文化、大量的南島影像音樂、來自南島語族的圖書、學習中心、多媒體資訊中心、網路連線數位閱讀等，在地文化學習也是主題圖書館的重點，提供質量兼具的館藏資源，營造南島映像風情圖書館，設計更優閒、友善的閱讀及學習環境。\r\n\r\n圖片擷取自臺東縣政府文化處圖書館網站。 \r\n\r\n本資料由文化部委託台灣閱讀推薦協會建構，建立日期為107年3月14日。","address":"台東縣台東市南京路25號","longitude":"121.146907","latitude":"22.752472","openTime":"星期二~星期日： 08:00~21:00，每星期一休館","phone":"(089)320378","email":"","headCityName":"","name_eng":"","intro_eng":"","mainTypeName":"特色圖書館","cityName":"臺東縣  台東市","groupTypeName":"特色圖書館","mainTypePk":"5aa91ce36e5ec7e8691093e5","version":"1.0","hitRate":2145},{"name":"雲林縣斗六市繪本圖書館","representImage":"https://cloud.culture.tw/e_new_upload/cms/image/A0/B0/C0/D14/E213/F433/a4358587-32aa-45e5-9832-9916c54eff7f.png","intro":"全台第一座專為兒童設計的繪本圖書館。圖書、繪本超過4萬冊，將朝專業繪本館發展，完整典藏國內外經典繪本。希望在本館用心所創造的兒童新天地裡，可以讓兒童擁有一個快樂、美感、有趣的優良環境，培養孩子思考、想像及閱讀習慣，讓孩子與父母一起在創意中成長。\r\n\r\n圖片擷取自雲林縣公共圖書館網站。 \r\n\r\n本資料由文化部委託台灣閱讀推薦協會建構，建立日期為107年3月14日。","address":"雲林縣斗六市莊敬路66號","longitude":"120.54091","latitude":"23.707794","openTime":"週二 ~ 週日08:00 ~ 18:00","phone":"(05)5321992","email":"library746@gmail.com","headCityName":"","name_eng":"","intro_eng":"","mainTypeName":"特色圖書館","cityName":"雲林縣  斗六市","groupTypeName":"特色圖書館","mainTypePk":"5aa923066e5ec7e8691093e6","version":"1.0","hitRate":1015},{"name":"國立臺灣圖書館","representImage":"https://cloud.culture.tw/e_new_upload/cms/image/A0/B0/C0/D14/E216/F234/29d536a4-9d70-4dda-960a-c2b71d23fdb5.jpg","intro":"本館前身係日治時期「臺灣總督府圖書館」，於日本大正三年（1914）四月十三日，以敕令第六十二號公布「臺灣總督府圖書館」官制，而於同年十一月在艋舺（萬華）清水祖師廟內，設置臨時事務所，籌備開館事宜，翌年六月，遷館至博愛路舊彩票局內辦公，八月九日正式對外開放閱覽。\r\n二戰後，於民國三十四年十月，由臺灣省行政長官公署接收「臺灣總督府圖書館」，次年並合併日人的「財團法人南方資料館」，成立「臺灣省行政長官公署圖書館」（簡稱為臺灣省圖書館）。民國三十七年五月，奉命改隸臺灣省政府教育廳，更名為「臺灣省立臺北圖書館」。本館於「臺灣省行政長官公署圖書館」及「臺灣省立臺北圖書館」二時期皆借用「臺灣省立博物館」一樓營運；受限於空間狹小，續於臺北市八德路、新生南路口建造新館，迨民國六十二年七月一日，奉行政院令改為「國立中央圖書館臺灣分館」，隸屬教育部。\r\n由於業務不斷發展，藏書總量急遽增加，新生南路館舍不敷使用，復經中和市公所(今中和區公所)同意無償撥用四公頃土地使用，民國七十八年教育部同意遷建，迭經「覓地撥用計畫」、「工程開工計畫」到「館務搬遷計畫」三階段，民國九十三年十二月二十日中和新館正式開幕啟用，新館館舍基地面積四公頃，為地上七層，地下三層，樓地板面積逾六萬平方公尺，是目前國內空間規模最大之國立圖書館。\r\n為強化學術研究功能並深化分齡分眾服務，本館相繼於民國九十六年三月成立「臺灣學研究中心」，同年六月成立「臺灣圖書醫院」；民國九十八年七月成立「樂齡資源區」、民國九十九年十一月成立「多元文化資源區」、民國一百零一年二月成立「青少年悅讀區」。\r\n民國一百零二年一月一日，奉行政院令改為今名。\r\n本館自日治時期大正4年(西元1915年)8月9日開館以來，即有製本室﹙裝訂室﹚設置，初期裝訂技師由日本高薪延聘，授與本地職工各種裝訂技術至今歲月悠久。\r\n本館在圖書文獻修復領域中，為臺灣各圖書館之表率及學習對象，在籌建新館之始，便規劃藉由科技設備來長久保存圖書文獻。民國96年6月將裝訂室、圖書大量除酸系統、冷凍除蟲設備及裝訂技術等整合於一，成立臺灣圖書醫院，期盼能推廣圖書保健觀念及醫療修復技術，使此精髓得以永續傳承。\r\n\r\n圖片擷取自國立臺灣圖書館臉書粉絲專頁。 \r\n\r\n本資料由文化部委託台灣閱讀推薦協會建構，建立日期為107年3月14日。","address":"新北市中和區中安街85號","longitude":"121.511013","latitude":"25.002583","openTime":"09:00-21:00，每週一及國定假日休館","phone":"(02)29266888","email":"user@mail.ntl.edu.tw","headCityName":"","name_eng":"","intro_eng":"","mainTypeName":"特色圖書館","cityName":"新北市  中和區","groupTypeName":"特色圖書館","mainTypePk":"5aa92aacaaa31a948b9c37ec","version":"1.0","hitRate":2511},{"name":"桃園市立圖書館龍岡分館","representImage":"https://cloud.culture.tw/e_new_upload/cms/image/A0/B0/C0/D14/E225/F970/440abbef-3411-41e6-8454-87c60f6de318.jpg","intro":"\"龍岡分館座落於台貿公園旁，館舍周圍除保留原有的樹木外，亦在頂樓設置太陽能光電板，利用日照環保節電，並已取得黃金級綠建築執照。建築師秉持「每一座圖書館都有書架，在琳琅滿目的藏書中挑一本書，每本書中都有一個豐富的世界」的理念設計外觀，側面落地窗設計有45個書本樣式面板，開啟時像打開一本一本的書，是一個意象與實體結合，設計感十足的建築物。\r\n龍岡擁有特殊人文背景，早期是中壢區主要的軍事區域，包括陸軍第六軍團指揮部、陸軍專科學校等均設於此。1950年代起，大量眷村在此設立，包括忠貞新村、貿易七村、馬祖新村等，成為中壢區除市區、內壢之外，另一個人口聚集區，亦成為台灣眷村密度最大的區域。其眷村居民大多來自中國雲南及泰緬邊境，造就當地的多元文化特色。因此，圖書館在規劃龍岡分館時，特以多元文化為該館特色，除館舍營造多元文化氛圍外，也設置多元雜誌及多元圖書區，採購泰國、緬甸、越南、印尼、菲律賓、寮國、柬埔寨等7個國家的刊物及圖書，希望提供新住民一個閱讀的管道。\r\n\r\n圖片擷取自桃園觀光導覽網。 \r\n\r\n本資料由文化部委託台灣閱讀推薦協會建構，建立日期為107年3月14日。","address":"桃園市中壢區台貿一街100號","longitude":"","latitude":"","openTime":"週二至週六：8:30-21:00，週日、週一：8:00-17:00。國定假日及每月最後一個星期四休館","phone":"(03)2868500","email":"","headCityName":"","name_eng":"","intro_eng":"","mainTypeName":"特色圖書館","cityName":"桃園市  中壢區","groupTypeName":"特色圖書館","mainTypePk":"5aa9374a6e5ec7e869109402","version":"1.0","hitRate":3098},{"name":"二崙故事屋","representImage":"https://cloud.culture.tw/e_new_upload/cms/image/A0/B0/C0/D15/E112/F344/cc617287-1bae-4a82-ad1d-1b21e7cdbf23.jpg","intro":"二崙分駐所是繼虎尾郡守官邸（雲林故事館）後，第一個縣定古蹟活化與再利用的故事屋，二崙分駐所前身為二崙派出所，創建於明治32年（1899年）10月25日，為雲林縣境內歷史最悠久派出所，是縣定古蹟，也是二崙鄉重要的文化資產。目前的建築物於大正15年（1926年）原地重建，2014年1月起開始活化古蹟再利用，成為二崙故事屋的所在地，作為分享、紀錄、整理、創作在地故事的社區文化據點。\r\n\r\n圖片擷取自二崙故事館臉書粉絲專頁。 \r\n\r\n本資料由文化部委託台灣閱讀推薦協會建構，建立日期為107年3月15日。","address":"雲林縣二崙鄉中山路102號","longitude":"120.40622","latitude":"23.815578","openTime":"週三、四、五、日及國定假日：09:00~17:00，週六：13:00~21:00。週一、週二休館，其它休假日以最新公告為準。","phone":"(05)5989490","email":"erlunstoryhouse@ylstoryteller.org.tw","headCityName":"","name_eng":"","intro_eng":"","mainTypeName":"特色圖書館","cityName":"雲林縣  二崙鄉","groupTypeName":"特色圖書館","mainTypePk":"5aa9e5ce6e5ec7e869109403","version":"1.0","hitRate":1201},{"name":"員林演藝廳圖書室","representImage":"https://cloud.culture.tw/e_new_upload/cms/image/A0/B0/C0/D16/E184/F460/2c812e60-c9e2-4e6d-8dc3-625ea498c1c1.jpg","intro":"彰化縣文化局所屬員林演藝廳是一個多功能複合式的藝術展演場所，為本縣推動藝術文化建設倡導優質藝文風氣的新據點，讓本縣成為充滿藝術與熱情的文化藝術之都。\r\n演藝廳圖書室以藝術類藏書為館藏特色，約有一萬餘冊藏書供讀者借閱或參考，空間分為一般閱覽區以及兒童閱覽區，並不定期辦理主題書展、說故事活動等推廣閱讀活動。\r\n\r\n圖片擷取自彰化縣文化局員林演藝廳網站。 \r\n\r\n本資料由文化部委託台灣閱讀推薦協會建構，建立日期為107年3月16日。","address":"彰化縣員林市員林大道二段99號","longitude":"","latitude":"","openTime":"週二 ~ 週日：09:00-17:00，每週一、民俗節日（春節、清明、端午、中秋）休館。","phone":"(04)8323410","email":"yuanlin.performance@gmail.com","headCityName":"","name_eng":"","intro_eng":"","mainTypeName":"特色圖書館","cityName":"彰化縣  員林鎮","groupTypeName":"特色圖書館","mainTypePk":"5aab9fb76e5ec7e869109405","version":"1.0","hitRate":1903},{"name":"高雄市立圖書館小港分館","representImage":"https://cloud.culture.tw/e_new_upload/cms/image/A0/B0/C0/D16/E186/F244/5e45ecde-5d06-4faa-a631-e3837729f0b3.jpg","intro":"小港分館是高雄市第22個公共圖書館，也是高市圖小港區首座圖書分館。設計採「森林閱讀」理念，利用「造景露臺」及「借景」的方式融合圖書館與周遭地景，將森林閱讀的概念貫穿至建築物及閱讀經驗，藉此營造人文與環境共榮的閱讀氛圍。全館以「天文」及「環境教育」為館藏特色。99年11月正式開館營運。\r\n\r\n圖片擷取自高雄市立圖書館小港分館臉書粉絲專業。 \r\n\r\n本資料由文化部委託台灣閱讀推薦協會建構，建立日期為107年3月16日。","address":"高雄市小港區博學路365號","longitude":"120.36085","latitude":"22.555319","openTime":"週二至週六09:00-21:00；週 日09:00-17:00。週一及國定假日休館。","phone":"(07)8021512、(07)8024310","email":"","headCityName":"","name_eng":"","intro_eng":"","mainTypeName":"特色圖書館","cityName":"高雄市  小港區","groupTypeName":"特色圖書館","mainTypePk":"5aaba2fbaaa31a948b9c37f0","version":"1.0","hitRate":1918},{"name":"羅東林業文化園區百年舊書攤","representImage":"https://cloud.culture.tw/e_new_upload/cms/image/A0/B0/C0/D16/E192/F122/02b34bc6-e090-463a-9c2c-6d6d840db520.jpg","intro":"羅東林業文化園區百年舊書攤為象徵蘭陽林業走過百年歷史，透過日式宿舍的轉型再利用，作為遊客閱讀林業、動植物、生態保育等書籍的場域。館內播放生態影片，同時為漂書計畫的濫觴，期許舊書攤成為宜蘭地區知識力量傳播的發起地。\r\n\r\n圖片擷取自羅東林業文化園區網站。 \r\n\r\n本資料由文化部委託台灣閱讀推薦協會建構，建立日期為107年3月16日。","address":"宜蘭縣羅東鎮中正北路118號","longitude":"121.77083","latitude":"24.675587","openTime":"每周三~周日09:00-12:00、14:00-17:00。","phone":"(03)9545114","email":"","headCityName":"","name_eng":"","intro_eng":"","mainTypeName":"特色圖書館","cityName":"宜蘭縣  羅東鎮","groupTypeName":"特色圖書館","mainTypePk":"5aaba73c6e5ec7e869109406","version":"1.0","hitRate":1164},{"name":"臺中文學館","representImage":"https://cloud.culture.tw/e_new_upload/cms/image/A0/B0/C0/D16/E195/F390/48c9ab6f-5a02-43b6-9124-fc4522f7cceb.JPG","intro":"臺中文學館原為日治時期的警察宿舍，1932年落成。基於歷史建築之永續保存，呈現時代的精神與脈絡，記錄大臺中地區文學發展的軌跡，彰顯在地文學家的成就，臺中市政府文化局於2009年將其登錄為歷史建築，以「臺中文學館」為定位，2010年4月進行修復與活化再利用工程。館舍於2015年4月外觀修復完成，先行開放文學公園，同時進行內部展示工程的設計、佈置，2016年8月26日各館舍全面開放。\r\n臺中文學館全園區佔地約1,863坪，館舍共分6棟，包含常設展區、主題展區、兒童文學區、研習講堂、主題餐飲區及行政區。各館舍以展覽、研習、推廣為主要用途，透過多元活潑的展示手法及互動體驗，達到文學教育與文化休閒之目的。館舍因深具建築美學與歷史氛圍，已成為文化觀光的新亮點。\r\n\r\n圖片擷取自台中文學館網站。 \r\n\r\n本資料由文化部委託台灣閱讀推薦協會建構，建立日期為107年3月16日。","address":"臺中市西區樂群街38號","longitude":"120.664047","latitude":"24.150957","openTime":"10:00-17:00，每週一及國定假日休館。","phone":"(04)22240875","email":"","headCityName":"","name_eng":"","intro_eng":"","mainTypeName":"特色圖書館","cityName":"臺中市  西區","groupTypeName":"特色圖書館","mainTypePk":"5aabae60aaa31a948b9c37f2","version":"1.0","hitRate":1012},{"name":"海灣繪本館","representImage":"https://cloud.culture.tw/e_new_upload/cms/image/A0/B0/C0/D16/E203/F285/5b4ef852-d49f-42b8-9966-957845150842.jpg","intro":"冬風將大翅鯨擱淺在海灣繪本館，大人、小孩都開始關心起牠的一切，為了讓大翅鯨可以在海灣快樂的生活，於是，大家一起創作許多好有趣的事情，這個冬天，我們在海灣遇見大翅鯨……\r\n由眷村屋舍所改造的海灣繪本館，以海灣與大翅鯨為主題，館內充滿海洋元素，為小朋友打造一個充滿想像空間的閱讀環境。\r\n\r\n\r\n圖片擷取自海灣繪本館臉書粉絲專頁。 \r\n\r\n本資料由文化部委託台灣閱讀推薦協會建構，建立日期為107年3月15日。","address":"台中市清水區中社路54號","longitude":"120.585464","latitude":"24.301983","openTime":"週六日10：00－17：00，週四五採團體預約參觀，週一至週三及國定假日休館。","phone":"(04)26281512","email":"","headCityName":"","name_eng":"","intro_eng":"","mainTypeName":"特色圖書館","cityName":"臺中市  清水區","groupTypeName":"特色圖書館","mainTypePk":"5aabb92baaa31a948b9c37f3","version":"1.0","hitRate":1600},{"name":"屏東縣原住民vusam兒童圖書館","representImage":"https://cloud.culture.tw/e_new_upload/cms/image/A0/B0/C0/D16/E215/F415/2ecf309e-8e3c-4851-a5d5-aebb2b53258b.jpg","intro":"屏東縣原住民vusam兒童圖書館為全臺灣第一座原住民兒童圖書館，透過孩子的學習，以及請孩子帶家長一同參與閱讀活動，除促進家庭和諧與親密外，更能透過這樣的機會將閱讀推廣至家長，再由家長影響至原鄉部落，由下而上提升原鄉閱讀風氣，亦可藉此讓家長理解孩子的教育與學習並非只倚靠學校及課輔班，望其能亡羊補牢地盡力彌補目前原鄉部落最缺乏的家庭教育功能。\r\n\r\n圖片擷取自社團法人屏東縣原住民文教協會網站。 \r\n\r\n本資料由文化部委託台灣閱讀推薦協會建構，建立日期為107年3月15日。","address":"屏東縣霧台鄉霧台村魯凱街200號","longitude":"","latitude":"","openTime":"","phone":"08-7610088","email":"sened.sened@gmail.com","headCityName":"","name_eng":"","intro_eng":"","mainTypeName":"特色圖書館","cityName":"屏東縣  霧台鄉","groupTypeName":"特色圖書館","mainTypePk":"5aabcb8d6e5ec7e869109407","version":"1.0","hitRate":850},{"name":"林語堂紀念圖書館","representImage":"https://cloud.culture.tw/e_new_upload/cms/image/A0/B0/C0/D3/E126/F338/8500f65c-6164-4edf-b555-63bd95c45f81.jpg","intro":"林語堂紀念圖書館原是林語堂生前最後的故居，一代文學大師林語堂先生於一九六五年定居於陽明山，逝世於一九七六年，享年八十二歲。其故居整片面積約二百坪，以西班牙式建築融合中式風格而築成。\r\n民國六十五年四月一日，先生長眠於故居後園，享年八十二歲。台北市政府為紀念林語堂先生的文學成就，並得林夫人廖翠鳳女士捐贈大師藏書、著作、手稿及其遺物，爰於大師舊居，成立「林語堂先生紀念圖書館」，於民國七十四年五月開放。其後，台北市文化局成立，有意擴充活化原有圖書館功能，以「名人故居」及「文學生活館」之方向規劃。經過公開招標評選，由佛光人文社會學院取得經營管理權，於民國九十一年三月廿六日全新開館；成為結合展示參觀、藝文講座、餐飲休憩的多元化空間，完整呈現了語堂先生的格調思想、發明創意、生活態度與文學成就。民國九十四年十月一日東吳大學接受台北市政府文化局委託經營林語堂故居，並以研究為指標，活絡林語堂學。\r\n\r\n\r\n本資料由文化部委託台灣閱讀推薦協會建構，建立日期為107年4月3日。","address":"台北市士林區仰德大道二段141號","longitude":"121.549359","latitude":"25.099687","openTime":"09:00–17:00，週一休館","phone":"(02)28613003","email":"linyutang.house@scu.edu.tw","headCityName":"","name_eng":"","intro_eng":"","mainTypeName":"特色圖書館","cityName":"臺北市  士林區","groupTypeName":"特色圖書館","mainTypePk":"5ac30902aaa36011b2e93c70","version":"1.0","hitRate":833},{"name":"中央研究院近代史研究所胡適紀念館","representImage":"https://cloud.culture.tw/e_new_upload/cms/image/A0/B0/C0/D3/E131/F565/3e1c21af-c7ac-4d33-8e35-a79c0954daca.jpg","intro":"胡適紀念館是研究胡適生平事蹟和思想的基地。本館收藏的胡適藏書，包含中、日、英文圖書、期刊及少數其他語文書籍，共3,885種，計6,918冊。除極少數是胡適先生1948年底從北平帶出來之外，絕大部分是1949年以後在美國及1958年回台灣就任中研院院長後搜集而成的，其來源有胡適先生自購、託人代購及親友餽贈。其最大特色是，書中有胡適先生留下的大量眉批、註記與隨想，對於研究胡適晚年的學術思想脈絡，提供了大量的參考材料。\r\n\r\n圖片擷取自台北旅遊網\r\n\r\n本資料由文化部委託台灣閱讀推薦協會建構，建立日期為107年4月3日。","address":"臺北市南港區研究院路二段130號","longitude":"121.592271","latitude":"25.054501","openTime":"週二至週六9:00-17:00，國定假日不開放參觀。","phone":"(02)27821147","email":"hushih@gate.sinica.edu.tw","headCityName":"","name_eng":"","intro_eng":"","mainTypeName":"特色圖書館","cityName":"臺北市  南港區","groupTypeName":"特色圖書館","mainTypePk":"5ac30cea6e5e541f9d5c5579","version":"1.0","hitRate":954},{"name":"台中市立圖書館深波分館","representImage":"https://cloud.culture.tw/e_new_upload/cms/image/A0/B0/C0/D3/E132/F586/0da7d88d-4bf6-42aa-a944-f1ba106a940f.jpg","intro":"沙鹿深波分館館藏特色系以「電影」為代表，共有2683冊 ，並將書籍依內容性質再細分為：電影總論、電影藝術及文化、電影技術、電影史、電影應用、電影人、電影小說、各國電影、電影劇本及其他。\r\n搭配「沙鹿電影藝術館」之文化特色，定期於圖書館內放映各國電影，同時歡迎國內影片創作者到本分館發表作品,並不定期舉辦影展，如：歐洲影展、金穗獎影展、公視巡迴影展、記錄片雙年展等，並經常性舉辦電影賞析講座。定期放映場次為週五14:00、週六週日10:00及14:00。\r\n\r\n圖片擷取自台中市立圖書館網站\r\n\r\n本資料由文化部委託台灣閱讀推薦協會建構，建立日期為107年4月3日。","address":"臺中市沙鹿區鎮南路二段488號","longitude":"120.585464","latitude":"24.237793","openTime":"週二至週六：8:30-21:00，週日：8:00-17:30。星期一及國定例假日休館","phone":"(04)26634606","email":"","headCityName":"","name_eng":"","intro_eng":"","mainTypeName":"特色圖書館","cityName":"臺中市  沙鹿區","groupTypeName":"特色圖書館","mainTypePk":"5ac30e756e5e541f9d5c557a","version":"1.0","hitRate":1488},{"name":"南投縣文學資料館","representImage":"https://cloud.culture.tw/e_new_upload/cms/image/A0/B0/C0/D3/E133/F668/8a2ed671-bbe9-47fc-889a-21f67b48010d.JPG","intro":"南投縣推動文學業務，始於南投縣立文化中心期的73年8月。20餘年慘澹經營下，發掘、累積許多文學能量，獲得文建會核列為地方文化館磐石計畫補助，正式在南投縣政府文化局圖書館大樓四樓設置「南投縣文學資料館」，於96年11月啟用。\r\n94年，於中興新村虎山農場設置虎山文學步道。100年底增設文學講堂，101年12月於文學資料館鄰室增設陳千武文庫，納入南投縣文學資料館整體維運範疇。\r\n102年底文學館常設展示更新，增設文學思路等文學空間，文學舘建築設施大致底定，乃就南投縣整體文學發展脈絡、人文環境的地域性特質與未來機會，重新思考文學資料館永續發展的定位，調整博物館主題特色與維運方向，以朝文學博物館專業發展努力。\r\n\r\n圖片擷取自南投縣文學資料館網站\r\n\r\n本資料由文化部委託台灣閱讀推薦協會建構，建立日期為107年4月3日。","address":"南投縣南投市中興路669號4F","longitude":"120.677505","latitude":"23.917963","openTime":"08:30-17:30 (週日至17:00)","phone":"049-2221619轉403","email":"hazel@mail.nthcc.gov.tw","headCityName":"","name_eng":"","intro_eng":"","mainTypeName":"特色圖書館","cityName":"南投縣  南投市","groupTypeName":"特色圖書館","mainTypePk":"5ac3116aaaa36011b2e93c71","version":"1.0","hitRate":942},{"name":"彰化文學館","representImage":"https://cloud.culture.tw/e_new_upload/cms/image/A0/B0/C0/D3/E134/F44/c0559962-533f-4733-bbaa-7aa6c6928679.jpg","intro":"彰化文學館設立在彰化市立圖書館一樓西區，連結八卦山文學步道，並與周邊1895八卦山抗日保台史蹟館、彰化縣立美術館、彰化藝術館形成一個文化園區，使具有歷史古韻與渾厚文化底蘊的城市，展現彰化文學獨特的魅力。\r\n\r\n圖片擷取自彰化市立圖書館網站\r\n\r\n本資料由文化部委託台灣閱讀推薦協會建構，建立日期為107年4月3日。","address":"彰化市卦山路4號","longitude":"120.549437","latitude":"24.07862","openTime":"週一至週六 08:30~18:00，週日08:30~17:00。每週二全天、民俗例節日全天休館","phone":"04-7202073、 04-7282831轉 109、111","email":"","headCityName":"","name_eng":"","intro_eng":"","mainTypeName":"特色圖書館","cityName":"彰化縣  彰化市","groupTypeName":"特色圖書館","mainTypePk":"5ac31372aaa36011b2e93c72","version":"1.0","hitRate":2401},{"name":"雲林故事館","representImage":"https://cloud.culture.tw/e_new_upload/cms/image/A0/B0/C0/D3/E140/F505/06cc1366-83d5-4f09-93a2-dc12c88c112a.JPG","intro":"雲林故事人，是由一群關心兒童教育與台灣未來的父母老師所組成的團體，自2002年，自籌經費辦理故事志工培訓以來，多年來持續推動閱讀文化，包括社區公共圖書館，文化中心及各級學校，同時也應邀協助外縣市的閱讀推廣志工培訓。自2003年起加入教育部閱讀推廣計劃行列至今。2007年12月起，負責雲林故事館的營運與活化，希望把雲林故事館營造為在地的故事文化平台，將閱讀文化普及到社區角落，人們的日常生活中。多年來，致力於閱讀文化紮根，以故事為軸心，邀請專家學者的指導，以互動交流方式進行，邀約在地的社會大眾一起體驗聽、說、讀、寫、演故事的生活樂趣與創意。故事這條看不見的線，將在地的故事，作了縱橫面的連結與串聯，使得生活在這個時空的人們，藉由故事而更清楚個人的存在與文化的價值。\r\n\r\n\r\n圖片擷取自雲林故事館網站。 \r\n\r\n本資料由文化部委託台灣閱讀推薦協會建構，建立日期為107年4月3日。","type":"藝術類","address":"雲林縣虎尾鎮林森路一段528號","longitude":"120.434947","latitude":"23.710246","openTime":"週三至週日 10:00~18:00，國定假日不休館。週一、週二、除夕、初一及國定假日後補休日休館","phone":"(05)6311436","email":"home@ylstoryhouse.org.tw","headCityName":"","name_eng":"","intro_eng":"","mainTypeName":"特色圖書館","cityName":"雲林縣  虎尾鎮","groupTypeName":"特色圖書館","mainTypePk":"5ac319406e5e541f9d5c557b","version":"1.0","hitRate":861},{"name":"老街圖書館","representImage":"https://cloud.culture.tw/e_new_upload/cms/image/A0/B0/C0/D3/E141/F683/5a1e40b5-bc65-486a-8484-e87c33841601.jpg","intro":"2010年螺陽文教基金會與來自四面八方的志工們，一同修復了延平路81號老屋-順成行，一樓空間做西螺老街社區圖書館，二樓空間則作為西螺背包客棧，提供外出了旅人們，一個舒適、乾淨的住宿空間。\r\n「西螺背包客棧」成立是為了提供年輕旅客在西螺老街停留較多時間，有一處安全舒適又便宜的住宿處。年青人可更深入認識並享受悠遊慢活的台灣小鎮生活樂趣。並讓全世界的旅客認識西螺文化。\r\n\r\n圖片擷取自西螺老街網站。 \r\n\r\n本資料由文化部委託台灣閱讀推薦協會建構，建立日期為107年4月3日。","address":"雲林縣西螺鎮延平路81號","longitude":"","latitude":"","openTime":"8:30 - 17:30","phone":"(05)5861444","email":"home@ylstoryhouse.org.tw","headCityName":"","name_eng":"","intro_eng":"","mainTypeName":"特色圖書館","cityName":"雲林縣  西螺鎮","groupTypeName":"特色圖書館","mainTypePk":"5ac31c126e5e541f9d5c557c","version":"1.0","hitRate":929},{"name":"鹿仔草民俗文化學堂","representImage":"https://cloud.culture.tw/e_new_upload/cms/image/A0/B0/C0/D3/E143/F178/5615a47c-2767-456d-b1a3-901df30d9062.jpg","intro":"鹿仔草民俗文化學堂建於民國67年，原為鹿草衛生所。民國92年移撥管理，鄉長極為重視藝術教育，提升藝術涵養，於95年邀集地方人士、社造工作學者討論後，計畫將閒置的「鹿草舊衛生所」規劃為「鹿仔草民俗文化學堂」，建構為地方文化生活的場所。學堂內有介紹鹿草在地特色的導覽與畫作，並經常安排藝文展覽與生活學習活動，將文化休閒融入民眾的生活。\r\n\r\n圖片擷取自鹿草鄉立圖書館暨文化學堂臉書粉絲專頁。 \r\n\r\n本資料由文化部委託台灣閱讀推薦協會建構，建立日期為107年4月3日。","address":"嘉義縣鹿草鄉西井村287號","longitude":"120.30895","latitude":"23.419256","openTime":"週二 ~ 週六9：00-12：00，13：00-16：00。(週日欲參觀或導覽，請洽鹿草圖書館)","phone":"(05)3752711轉65或30","email":"chiayilucao@gmail.com","headCityName":"","name_eng":"","intro_eng":"","mainTypeName":"特色圖書館","cityName":"嘉義縣  鹿草鄉","groupTypeName":"特色圖書館","mainTypePk":"5ac31ef56e5e541f9d5c557d","version":"1.0","hitRate":1083},{"name":"葉石濤文學紀念館","representImage":"https://cloud.culture.tw/e_new_upload/cms/image/A0/B0/C0/D3/E144/F837/ac0895c7-2185-4cbf-a18e-f837c358e3a1.jpg","intro":"葉石濤先生是台灣本土文學的重要文學家。「這是個適合人們做夢、幹活、戀愛、結婚，悠然過日子的好地方。」 這句話是葉石濤先生在台南體驗生活、品味人生的心得，也是台南傳達給旅客的專屬意象。\r\n葉石濤文學紀念館共有兩樓，1樓展示府城文學地景，簡介台南府城的小說、隨筆、評論、翻譯及出版契約，並展示葉石濤生平與著作、重要作品及手稿，另外還有功勳牆及影片牆展區。二樓展區為葉石濤文學書房、紀錄片視聽室及葉石濤會客室特展區。\r\n\r\n站在會客室空間中，老書桌上還擺著葉石濤老師的眼鏡與他愛用的筆，彷彿還可以感受到葉老師一直在他深愛的土地上以他的精神持續創作著。\r\n\r\n圖片擷取自台南市政府觀光旅遊局網站。 \r\n\r\n本資料由文化部委託台灣閱讀推薦協會建構，建立日期為107年4月3日。","address":"臺南市中西區中正路5巷1號","longitude":"120.204963","latitude":"22.990709","openTime":"09:00~17:00，週一休館","phone":"(06)2215065","email":"yst.lmm@gmail.com","headCityName":"","name_eng":"","intro_eng":"","mainTypeName":"特色圖書館","cityName":"臺南市  中西區","groupTypeName":"特色圖書館","mainTypePk":"5ac322c0aaa36011b2e93c8b","version":"1.0","hitRate":1532},{"name":"楊逵文學紀念館","representImage":"https://cloud.culture.tw/e_new_upload/cms/image/A0/B0/C0/D3/E150/F865/35e0ff4f-8556-440c-9981-f8d0c078b832.jpg","intro":"粗略瞭解臺灣文學史的人必定聽過「楊逵」這個人，他是臺灣文壇的先輩，用一顆誠實的心、拿一支樸質的筆，描寫生動而真實的平民生活，寫出社會底層的心聲。\r\n楊逵，本名楊貴，1906年出生於臺南新化，至青年時期才離開家鄉，輾轉落居臺中，晚年耕讀於臺中東海花園，一生執著於人道主義，不畏公權力，大聲說出寫出人民真切的需求，他自述：「這一生我的努力，都在追求民主、自由和和平。我沒有絕望過，也不曾被擊倒過：主要由於我心中有股能源，它使我在糾紛的人世中學會沉思，在挫折來時更加振作，苦難前露微笑，即使到處碰壁也不致被凍僵。」他的生命，是一場勇者與命運的奮鬥，堪為世人表率。\r\n現在，他故鄉的鄉親們本著他積極的行動力，挽袖高舉重重的鋤頭，深耕新化的藝術文化土地，為楊逵規畫籌設紀念館，創造一個屬於新化的「玫瑰園」。\r\n這座楊逵文化館，是利用地政事務所的舊建築，鄰近新化街役場，未來除了是楊逵文物的展示場所，並做為彰顯地方特色的基地，期望能在楊逵文化館的創設過程中，引導在地民間團體成長與整合，共同推動文化紮根工作。\r\n\r\n圖片擷取自台南市政府觀光旅遊局網站。 \r\n\r\n本資料由文化部委託台灣閱讀推薦協會建構，建立日期為107年4月3日。","address":"臺南市新化區中正路488號","longitude":"120.332016","latitude":"23.028088","openTime":"週二到週五9:00~12:00、13:30-17:00，六日中午不休息","phone":"(06)5908865","email":"","headCityName":"","name_eng":"","intro_eng":"","mainTypeName":"特色圖書館","cityName":"臺南市  新化區","groupTypeName":"特色圖書館","mainTypePk":"5ac326c7aaa36011b2e93c8c","version":"1.0","hitRate":790},{"name":"大東藝術圖書館","representImage":"https://cloud.culture.tw/e_new_upload/cms/image/A0/B0/C0/D3/E151/F948/e4ae91e1-6e27-4e29-a2f0-25b8d69f5ed4.jpg","intro":"大東藝術圖書館為台灣公共圖書館中首創之藝術專業圖書館，於2012 年4 月22 日正式開館營運，是高雄市立圖書館的分館之一。全館以「藝術閱讀」為設立宗旨，期能深耕藝術教育，推展藝術知識普及，並帶動大高雄藝術欣賞人口，成為南台灣的藝術資源寶庫。\r\n本館坐落在大東文化藝術中心內，採用優雅的木質咖啡色系，環境古典而優美，營造國外大學圖書館般的藝術閱讀氛圍。並自開館以來獲得各界之肯定，於102年獲得「教育部書香卓越典範館」。\r\n配合大東文化藝術園區屬性，圖書館定位在「藝術研究」，係屬本國圖書館法第四條第5項之專門圖書館類型，以建立專業表演藝術資訊中心為發展目標。大東藝術圖書館館藏內容涵蓋文化藝術、音樂、建築、雕塑、繪畫、書法、攝影、工藝（金石）、舞蹈、戲劇、電影、動漫共12大藝術，並斥資１億元以上，引進世界最經典及暢銷的藝術圖書、期刊，以及國內外藝術中心出版品，歌劇、音樂劇、舞臺劇影音資料，藝術資料庫及電子書，總館藏量未來可擴充至20萬冊(件)。 \r\n\r\n圖片擷取自大東藝術圖書館網站。 \r\n\r\n本資料由文化部委託台灣閱讀推薦協會建構，建立日期為107年4月3日。","address":"高雄市鳳山區光遠路161號","longitude":"120.34932","latitude":"22.611359","openTime":"週二至週六 10:00-21:00、週日 10:00-17:00","phone":"(07) 743-0011 #1147~1150","email":"","headCityName":"","name_eng":"","intro_eng":"","mainTypeName":"特色圖書館","cityName":"高雄市  鳳山區","groupTypeName":"特色圖書館","mainTypePk":"5ac329136e5e541f9d5c557e","version":"1.0","hitRate":1162},{"name":"高雄文學館","representImage":"https://cloud.culture.tw/e_new_upload/cms/image/A0/B0/C0/D3/E153/F143/24f3b92c-b512-49fc-a552-98ac13d19392.jpg","intro":"高雄文學館位於高雄市中心綠意盎然的中央公園西北隅，為民生綠蔭大道上一棟頗具古典風格的二層樓建築，總樓地板面積約480坪，自1954年以來即作為圖書館用途。2013年爭取文建會「公共圖書館空間及營運改善計畫」專案補助，轉型為一兼具文學創作與文化休閒的多功能優質文學閱讀空間，以典藏文學類圖書為特色，於2004年3月29日重新啓用，並更名為「高雄文學館」，是全台第一座以城市命名的文學館。\r\n\r\n2006年起被列為文建會「地方文化館」，完成多項具特色的作家資料收集。同年完成「高雄作家資料專區」啟用迄今，資料專區陳列近200位作家簡歷、照片、著作年表、目錄，及相關著作供眾參閱。\r\n配合網路化的時代，建置「高雄作家資料數位典藏資料庫」，將館內紙本資料轉化成數位資料，內容包含作家資料、作家駐館講座全程錄影、作品全文、作品原書掃描、多媒體電子書等，並提供民眾上網查閱及點播。可說是國內文學館中，針對城市作家及作品建置數位典藏的先驅，亦形塑地方文學推廣與網路結合的典範，並肩負收集、保存、展示高雄文學作品的任務。\r\n\r\n圖片擷取自高雄文學館網站。 \r\n\r\n本資料由文化部委託台灣閱讀推薦協會建構，建立日期為107年4月3日。","address":"高雄市前金區民生二路39號","longitude":"","latitude":"","openTime":"週二至週六 9:00-21:00、週日9:00-17:00，週一及國定假日休館","phone":"(07)261-1706，(07)2611707","email":"literature@mail.ksml.edu.tw","headCityName":"","name_eng":"","intro_eng":"","mainTypeName":"特色圖書館","cityName":"高雄市  前金區","groupTypeName":"特色圖書館","mainTypePk":"5ac32bc1aaa36011b2e93c8d","version":"1.0","hitRate":1965},{"name":"屏東旅遊文學館","representImage":"https://cloud.culture.tw/e_new_upload/cms/image/A0/B0/C0/D3/E154/F175/57c12f4b-95ba-477f-9111-4301a6eb5a29.JPG","intro":"旅遊文學館設立於民國94年（2005年），位於屏東市公園路24-2號，即鄰近中山公園的屏東縣政府文化處介壽圖書館館內，原設於介壽圖書館二樓，因空間有限於95~96年間移至一樓，並充實軟硬體設備，擴大圖書館原有功能增加展示空間可做展覽、講座、電影播放等等，朝多功能館舍目標發展。 \r\n旅遊文學館外邊有裝置藝術型式的腳踏車，以及標示著屏東縣重要藝文空間地名的指路牌，代表本館是一間以旅遊文學為主題的文化館舍 豐富的旅遊文學典藏 旅遊文學館典藏遊覽世界各地的遊記、札記、旅遊資訊等圖書，超過1,500 冊的館藏讓入館讀者神遊紙上，彷彿身歷其境。 有關屏東地區的旅遊文學是重點館藏，目的是鼓勵各地遊客透過書寫，紀錄屏東旅遊的點滴，更期許讀者寫出以屏東為主題的經典作品，一如黃春明筆下的宜蘭風情、葉石濤文字中的府城記憶。\r\n\r\n圖片擷取自屏東縣旅遊文學館網站。 \r\n\r\n本資料由文化部委託台灣閱讀推薦協會建構，建立日期為107年4月3日。","address":"屏東市公園路24-2號","longitude":"120.501205","latitude":"22.67797","openTime":"週二至週日 9:00~17:30(國定假日、屏東縣政府宣告停止上班日及本館因業務需要公告暫不開放期間，本館不對外開放)","phone":"08-7365010","email":"","headCityName":"","name_eng":"","intro_eng":"","mainTypeName":"特色圖書館","cityName":"屏東縣  屏東市","groupTypeName":"特色圖書館","mainTypePk":"5ac32effaaa36011b2e93c8e","version":"1.0","hitRate":959},{"name":"宜蘭文學館","representImage":"https://cloud.culture.tw/e_new_upload/cms/image/A0/B0/C0/D3/E155/F692/0b7b3df7-620a-458a-8a7d-07cdfa672c17.jpg","intro":"有感於文學對文化的重要性，宜蘭縣政府希望能建構一個蘭陽文學的保存與創新基地，於是研擬了宜蘭文學館計畫。\r\n文學館的主要場館規劃，是希望使地方居民及外來訪客認識本地文學的產生環境場域、發展歷程，及欣賞本縣重要作家作品；也提供本地文學團體甚至全國的作家朋友一個友善的環境，能在這個場館舉辦文學活動，或是在這個歷史建築裡醞釀新的創作。而在縣府方面，更會利用這樣專屬的空間，與文學團體合作，推展更具活力的文學活動，使這個館不僅是個資料館，更是個充滿文學生命力的場域。\r\n\r\n\r\n圖片擷取自宜蘭縣政府宜蘭勁好玩網站。 \r\n\r\n本資料由文化部委託台灣閱讀推薦協會建構，建立日期為107年4月3日。","address":"宜蘭縣宜蘭市舊城南路縣府2巷19號","longitude":"121.75374","latitude":"24.759115","openTime":"09:00－17: 00，週一、除夕、本館另行公告之休館日休館","phone":"03-9322440","email":"ilccbservice@mail.e-land.gov.tw","headCityName":"","name_eng":"","intro_eng":"","mainTypeName":"特色圖書館","cityName":"宜蘭縣  宜蘭市","groupTypeName":"特色圖書館","mainTypePk":"5ac332afaaa36011b2e93c8f","version":"1.0","hitRate":800},{"name":"苗栗縣立照南國民中學敦品圖書館","representImage":"https://cloud.culture.tw/e_new_upload/cms/image/A0/B0/C0/D8/E196/F609/ab495a8c-5b63-44ef-88ba-9a66486248e4.png","intro":"照南國中圖書館位於照南國中新落成之「敦品樓」一樓，以「書法」為主題意象，結合文學和空間美學，加上退休書法老師張凰謙老師捐贈的書法墨寶，讓閱讀的孩子擁有更舒適的讀書環境。\r\n\r\n\r\n圖片擷取自苗栗縣立圖書館網站\r\n\r\n本資料由文化部委託台灣閱讀推薦協會建構，建立日期為107年4月8日。","address":"苗栗縣竹南鎮公教路2號","longitude":"120.886016","latitude":"24.690153","openTime":"","phone":"037-472750","email":"service@jn.mlc.edu.tw","headCityName":"","name_eng":"","intro_eng":"","mainTypeName":"特色圖書館","cityName":"苗栗縣  竹南鎮","groupTypeName":"特色圖書館","mainTypePk":"5aca0400aaa36011b2e93c97","version":"1.0","hitRate":1661},{"name":"苗栗縣三灣鄉立圖書館","representImage":"https://cloud.culture.tw/e_new_upload/cms/image/A0/B0/C0/D8/E221/F655/6da69881-1300-4656-9cb1-17fb61a188d3.jpg","intro":"苗栗縣三灣鄉立圖書館，雖地處偏僻，連公車都未經過，但這座小小圖書館卻連續3年借閱率登全國之冠，平均每人每年借閱冊數逾14本，遠勝台北市的4點多本。\r\n三灣鄉人口不到7000人，圖書館沒有公車可達，附近一家書局也沒有，卻連續3年平均借閱冊數居全國之冠。館方除春節外「全年無休」和親切服務的態度，以及運用臉書、部落格與讀者互動，都是經營成功的原因。圖書館室內外處處充滿閱讀氛圍，並積極推動閱讀活動，針對民眾需求，辦理適齡、適性的各項閱讀活動，並主動結合鄉內學校共同推動閱讀，成效極佳。在辦證率、借閱率、參與活動率方面，也居全縣之冠。\r\n目前館藏6萬6242本書，除了各式雜誌、書籍外，還設有新住民、原住民文化區，而其中又以親子繪本最受歡迎，不但吸引三灣鄉民勤跑圖書館，連頭份、苗栗、新竹等地區民眾也會遠道而來借書。\r\n\r\n圖片擷取自聯合新聞網 \r\n\r\n本資料由文化部委託台灣閱讀推薦協會建構，建立日期為107年4月8日。","address":"苗栗縣三灣鄉三灣村親民路17-1號","longitude":"","latitude":"","openTime":"週一至週日：08:00-17:00，農曆春節休館","phone":"037-833430","email":"swlibrary833430@yahoo.com.tw","headCityName":"","name_eng":"","intro_eng":"","mainTypeName":"特色圖書館","cityName":"苗栗縣  三灣鄉","groupTypeName":"特色圖書館","mainTypePk":"5aca2213aaa36011b2e93c98","version":"1.0","hitRate":1177},{"name":"五味屋","representImage":"https://cloud.culture.tw/e_new_upload/cms/image/A0/B0/C0/D9/E114/F780/fbe08794-2508-47d8-aed9-474eee50b959.jpg","intro":"「五味屋 」位於花蓮縣壽豐鄉豐田村，利用豐田火車站前之日式閒置空間「風鼓斗」建築為空間，以社區公益二手商店方式經營，作為鄰近村落兒童青少年的社區活動場所。\r\n一棟原本殘破不堪老舊房舍，從嚴重漏水、白蟻侵蝕，重整為古色古香孩子們願意來學習、成長的好所在。\r\n2008年8/31開幕至今，五味屋的初衷不變，要做的買賣是--給社區孩子們一個真實的多元學習場域。週末，帶著功課到店裡一邊做功課、一邊做生意。在這裡，要學會鄉下孩子應該有的五種味道：天真、勤儉、感心、親切與好用；要熟悉鄉村交易的本質--利中有情、情中有利。藉由真實生活參與，培養孩子們的興趣--自行去開發選擇，學著玩、學著喜歡。\r\n這裡沒有具體或系統化的計畫，眼前的需要，就是這裡的所有學習。沒錢買展示架，就找舊紙箱，發揮創意做成各式各樣的展示架子；颱風來了要防颱，學習找漏洞、補缺口；東西賣完了、架子空了，學習募集物資、告訴別人自己的需要；客人來了問東問西、殺價討便宜，學習應對進退、言語得宜。\r\n孩子們在五味屋工作換得工作點數，可在店內以點數換取生活所需、也用累積的點數與穩定的表現，贏得到外面參加活動、拓展視野的機會，「靠自己努力獲得」是五味屋孩子簡單又驕傲的工作原則。\r\n\r\n\r\n圖片擷取自五味屋臉書粉絲專頁 \r\n\r\n本資料由文化部委託台灣閱讀推薦協會建構，建立日期為107年4月9日。","address":"花蓮縣壽豐鄉豐山村站前街34號","longitude":"121.602986","latitude":"23.904306","openTime":"每週六日9:00-16:00。暑假(7/3~8/31)開店時間為每週四、五、六、日、一 ，週間營業時間為10：00-16：00，週末營業時間為 9:00-16:00","phone":"(038)656922","email":"5wayhouse@gmail.com","headCityName":"","name_eng":"","intro_eng":"","mainTypeName":"特色圖書館","cityName":"花蓮縣  壽豐鄉","groupTypeName":"特色圖書館","mainTypePk":"5acae0cbaaa36011b2e93c99","version":"1.0","hitRate":4425},{"name":"豐田の冊所","representImage":"https://cloud.culture.tw/e_new_upload/cms/image/A0/B0/C0/D9/E114/F952/98c322e5-face-43a2-88e0-cc4532848b16.jpg","intro":"位於壽豐鄉豐田村民權街七號的「豐田の冊所」，是一間由五味屋團隊和社區志工一同經營的公益書店，裡面有著兩千多冊的二手好書，整整齊齊地擺放在木製書櫃上，書店一樓中央有一張大木桌與木椅，許多客人常常在此讀著書佐一杯咖啡，愜意地度過一下午的時光。\r\n走進冊所，你會發現從門口招牌到內部陳設，都迥異於以往認知的書店，甚至可以「怪異」形容。例如招牌是上千根鐵釘所釘製而成；書架也五花八門，有些是孩子們自製、有些是他人捐贈。書店童書區的陳列，也完全依照孩子自己的「章法」來分類，常讓人摸不著頭緒。\r\n書籍分類的怪異，從牆上張貼的一紙公告可看出，都是由孩子們自己決定哪些圖書適合高、中、低年級。這個孩子自創的分類系統，反而幫助他們在廣大書海中，以自己親身所見、所接觸的，建立起他們對書世界的認知，也積極串連學校老師、家長參與，讓孩子可以在合適的環境下喜歡上閱讀，實質照護偏鄉孩子。\r\n\r\n\r\n圖片擷取自豐田の冊所臉書粉絲專頁 \r\n\r\n本資料由文化部委託台灣閱讀推薦協會建構，建立日期為107年4月9日。","address":"花蓮縣壽豐鄉豐裡村民權街7號","longitude":"121.602986","latitude":"23.904306","openTime":"週三至週五：13:00-16:00，週六至週日：09:00-16:00","phone":"(038)650187","email":"5wayhouse@gmail.com","headCityName":"","name_eng":"","intro_eng":"","mainTypeName":"特色圖書館","cityName":"花蓮縣  壽豐鄉","groupTypeName":"特色圖書館","mainTypePk":"5acae1faaaa36011b2e93c9a","version":"1.0","hitRate":1272},{"name":"新竹縣政府文化局圖書館","representImage":"https://cloud.culture.tw/e_new_upload/cms/image/A0/B0/C0/D9/E123/F52/8c53b4b3-24e9-42ef-a6aa-0b3c293198be.jpg","intro":"前身為日治時代新竹州圖書館、新竹縣立圖書館，民國八十五年隨新竹縣立文化中心落成啟用而遷移至現址。整體建築包含圖書館主要閱覽區、自修室與故事城堡，形塑出傳統聚落建築之型態，並以潛園、寶庫、穀倉的意象，展現靜態、人性尺度、多角落之空間設計。  \r\n圖書館主要閱覽區館舍為一地上三層、地下一層之獨立建築，總樓地板面積約為 4372 平方公尺，館內局部區域採天光設計，可解決內部深處的採光，並行成空氣對流，有利書籍典藏及讀者閱覽，空間規劃上設置有書庫、期刊區、兒童室、視聽區、參考區、資訊檢索區、辦公室等，現有館藏約二十萬冊，並以「建築藝術」 、「客家」相關資料及本縣地方文獻為典藏特色。  \r\n故事城堡，為客家圓樓造型，現為提供假日說故事或辦理其它活動時使用。\r\n\r\n\r\n\r\n圖片擷取自新竹縣政府文化局圖書館網站 \r\n\r\n本資料由文化部委託台灣閱讀推薦協會建構，建立日期為107年4月9日。","address":"新竹縣竹北市縣政九路146號","longitude":"121.023094","latitude":"24.821766","openTime":"週二至週五 09:00-20:30，週六至週日 09:00-17:00。週一全天 、 國定假日（農曆除夕、春節、清明節、端午節、中秋節）、 選舉日休館","phone":"(03)5510201","email":"","headCityName":"","name_eng":"","intro_eng":"","mainTypeName":"特色圖書館","cityName":"新竹縣  竹北市","groupTypeName":"特色圖書館","mainTypePk":"5acaeb856e5e541f9d5c5585","version":"1.0","hitRate":4212},{"name":"基隆市中正區圖書館","representImage":"https://cloud.culture.tw/e_new_upload/cms/image/A0/B0/C0/D9/E131/F815/1906d138-82ba-4391-a8ed-0e0d73c66c25.JPG","intro":"本館於民國89年成立，原址位於祥豐市場二樓。因館舍陳舊，後申請教育部閱讀環境改善案補助，配合本區新行政大樓新建工程於民國107年元月搬遷至現址繼續為民眾服務。本館之空間設計參考本區地理環境，以柔和的線條與湛藍色調營造海洋意象。館舍空間設計生動而廣闊，期打造優質之閱讀環境。入口特色館藏書架由本市市徽發想，從市徽山與海之意象，連結出「山」、「海」、「人」三大主題，進而帶出「在地」、「海洋」及「多元文化」三大特色館藏主題。\r\n\r\n\r\n圖片擷取自基隆市中正區公所網站 \r\n\r\n本資料由文化部委託台灣閱讀推薦協會建構，建立日期為107年4月9日。","address":"基隆市中正區中正路236號1樓","longitude":"121.77368","latitude":"25.148998","openTime":"週二至週日09:00-17:00","phone":"(02)24628164","email":"","headCityName":"","name_eng":"","intro_eng":"","mainTypeName":"特色圖書館","cityName":"基隆市  中正區","groupTypeName":"特色圖書館","mainTypePk":"5acaf764aaa36011b2e93c9b","version":"1.0","hitRate":1804},{"name":"澎湖縣圖書館","representImage":"https://cloud.culture.tw/e_new_upload/cms/image/A0/B0/C0/D10/E155/F99/83b1b89f-2253-49e5-b120-90a17a818c4c.jpg","intro":"澎湖縣圖書館為二層樓建築，於民國100年4月23日（世界書香日）啟用，週邊結合文化局主體建築、演藝廳、科學館、體育場、忠烈祠等文教區，共同營造縣民的文化園區。\r\n整體設計極具現代感，線條與色彩都走簡潔俐落的風格，外門上方設計像一本本書籍並列、也像光碟片並排擺放的造型，傳達的是閱讀從熟悉的紙本漸漸轉變成為數位化的歷程。整棟建築採光明亮，讀者在室內閱讀時，戶外綠意同時觸目可及，環境十分怡人。\r\n\r\n\r\n\r\n圖片擷取自澎湖縣圖書館網站 \r\n\r\n本資料由文化部委託台灣閱讀推薦協會建構，建立日期為107年4月10日。","address":"澎湖縣馬公市中華路236-1號","longitude":"119.586158","latitude":"23.566121","openTime":"週三至週日：上午08:30-12:00，下午13:30-21:00。每週一、二休館","phone":"(06)9261141#153","email":"","headCityName":"","name_eng":"","intro_eng":"","mainTypeName":"特色圖書館","cityName":"澎湖縣  馬公市","groupTypeName":"特色圖書館","mainTypePk":"5acaf871aaa36011b2e93c9c","version":"1.0","hitRate":963},{"name":"國立海洋大學圖書館","representImage":"https://cloud.culture.tw/e_new_upload/cms/image/A0/B0/C0/D9/E234/F901/41a84a6d-e67b-4d2c-aa40-aa1a4e4757b3.jpg","intro":"國立海洋大學圖書館是全台唯一獨具海洋特色的圖書館，踏入館內即可享受濃濃的大自然海洋氛圍，更有令人心曠神怡的海洋景色，館正前面與南側面有五根聳拔的圓柱，外牆黏貼乳白色小口磁磚。四、五樓窗台外緣部份以黑色水泥斬石。二、三樓三面的外牆，均為一座座封閉式的大玻璃窗。且在正門前方廣場左右的空地上，設置一個個的單座花台和草地，配合周遭的景觀，種植大小不同的花木，使外觀看起來頗具現代化。\r\n圖書館藏包羅萬象，內容除海事領域，還包括海運暨管理、生命科學、海洋科學與資源、電機資訊、工程，及人文社會學科等圖書、期刊、電子書、電子期刊、資料庫、視聽資料、及報紙等。學校每年仍持續投入經費採購電子期刊資料庫及中外文圖書。此外，並與國內多所夥伴圖書館合作，提供書刊文獻複印及圖書互借服務，滿足教學、研究、學習及休閒資訊需求。\r\n\r\n\r\n圖片擷取自2015台灣十大非去不可圖書館大票選官方網站\r\n\r\n本資料由文化部委託台灣閱讀推薦協會建構，建立日期為107年4月9日。","address":"基隆市中正區北寧路2號","longitude":"121.77368","latitude":"25.148998","openTime":"周一至周五：08:10-22:00，週六、日：09:10-21:00。（開放一般民眾進入時間依校方公告為主）","phone":"(02)24622192","email":"lit@mail.ntou.edu.tw","headCityName":"","name_eng":"","intro_eng":"","mainTypeName":"特色圖書館","cityName":"基隆市  中正區","groupTypeName":"特色圖書館","mainTypePk":"5acb8aa36e5e541f9d5c5588","version":"1.0","hitRate":1702},{"name":"國立台東大學圖書資訊館","representImage":"https://cloud.culture.tw/e_new_upload/cms/image/A0/B0/C0/D10/E3/F316/b60fad04-736b-46f1-9599-1887acf7c16a.jpg","intro":"國立台東大學圖書館和電算中心在103年8月1日正式整併為圖書資訊館，並在同年8月27日完成搬遷工程，9月23日開始試營運，12月8日揭幕。\r\n新建之圖書資訊館在建築師山水意象的精心設計下，巧妙地呼應了台東大學山海環繞、得天獨厚的地理景觀。北面的圖書館是一棟五層樓的山形建築，是臺東大學典藏知識的金字塔；南面的資訊中心是一棟兩層樓的水形建築，蜿蜒在鏡心湖畔，是台東大學資訊維運的樞紐，不僅是校園的地標建築，也是台東的新亮點。\r\n此外，本館也提供社區服務，實踐與區域連結合作的社會責任，包括台東地區中小學圖書教師輔導、台東縣居民閱覽證申請及優惠服務，並且負責台東縣區域網路中心的維運，提供台東地區學術網路連線、資訊安全、及教育推廣等服務。\r\n\r\n\r\n圖片擷取自國立台東大學東大新聞網\r\n\r\n本資料由文化部委託台灣閱讀推薦協會建構，建立日期為107年4月10日。","address":"台東市大學路二段369","longitude":"121.146907","latitude":"22.752472","openTime":"週一至週五：08:00-22:00，週六：09:00-17:00，週日：14:00-22:00。（開放一般民眾進入時間依校方公告為主）","phone":"(089)518135","email":"ref@nttu.edu.tw","headCityName":"","name_eng":"","intro_eng":"","mainTypeName":"特色圖書館","cityName":"臺東縣  台東市","groupTypeName":"特色圖書館","mainTypePk":"5acb93bd6e5e541f9d5c559a","version":"1.0","hitRate":1608},{"name":"高雄市立圖書館總館","representImage":"https://cloud.culture.tw/e_new_upload/cms/image/A0/B0/C0/D10/E112/F595/f8790b0b-d585-46c4-967d-9a8fe5929325.JPG","intro":"高雄市立圖書館總館位於高雄亞洲新灣區，以「館中有樹、樹中有館的懸吊式綠建築文化地標」，吸引全國民眾與文化界目光；明亮而穿透性的空間規劃，提供民眾嶄新的閱讀經驗；市民自發性捐款成就了百萬藏書目標，這是一座凝聚高雄市民愛與希望的市民圖書館，引領城市轉型，打造城市永續發展的知識殿堂。\r\n總館位於地下1樓的國際繪本中心結合系統化之館藏，提供更普及之圖像結合語文的閱讀教育，讓高雄市民得以將繪本的圖文藝術融入生活，並拓展多元文化的胸襟。同時支援相關之繪本研究，並藉各種講座、研習與工作坊之辦理，為圖畫書藝術創作者、教師和社會大眾提供互動的平台，期能激盪想像，為本地孕育繪本之文創人才。以全球性的視野，營建全台灣最具規模的國際繪本中心。\r\n\r\n\r\n圖片擷取自高雄市立圖書館總館網站\r\n\r\n本資料由文化部委託台灣閱讀推薦協會建構，建立日期為107年4月10日。","address":"高雄市前鎮區新光路61號","longitude":"120.309562","latitude":"22.585435","openTime":"10:00-22:00，國定假日開放時間10:00-17:00。除夕閉館，每週一休館","phone":"07-5360238","email":"","headCityName":"","name_eng":"","intro_eng":"","mainTypeName":"特色圖書館","cityName":"高雄市  前鎮區","groupTypeName":"特色圖書館","mainTypePk":"5acc2e836e5e541f9d5c559b","version":"1.0","hitRate":1096},{"name":"國立公共資訊圖書館","representImage":"https://cloud.culture.tw/e_new_upload/cms/image/A0/B0/C0/D10/E114/F884/5ffc75a6-aa91-47ea-b5fc-0537a4129cfd.jpg","intro":"國立公共資訊圖書館總館外觀是以「流動的知識之河」為構想打造，建築體線條及每扇窗造型均不重覆，為一地上五層、地下兩層，總樓地板面積達41,797平方公尺之白色建築。為國立級之公共圖書館及數位圖書館，除蒐集、整理、典藏各種圖書資訊、數位資源，推廣閱讀及提供資訊服務外，並負有輔導全國各級公共圖書館之任務。總館為提供具有圖書閱覽、資訊檢索、數位服務、展覽及演講、訓練等場域，服務對象為全國民眾，購置全國公共圖書館共用數位資源，提供連結與資源分享，成為全國公共圖書館之數位資源雲端中心，兼具實體與虛擬服務，虛實合一之數位公共圖書館。\r\n\r\n\r\n圖片擷取自國立公共資訊圖書館臉書粉絲專頁\r\n\r\n本資料由文化部委託台灣閱讀推薦協會建構，建立日期為107年4月10日。","address":"臺中市南區五權南路100號","longitude":"120.679643","latitude":"24.132733","openTime":"週二至週六：09:00-21:00，週日：09:00-17:00。星期一及經政府公告之放假日休館","phone":"(04)22625100","email":"","headCityName":"","name_eng":"","intro_eng":"","mainTypeName":"特色圖書館","cityName":"臺中市  南區","groupTypeName":"特色圖書館","mainTypePk":"5acc32c46e5e541f9d5c559c","version":"1.0","hitRate":1273},{"name":"國立台灣大學社會科學院辜振甫先生紀念圖書館","representImage":"https://cloud.culture.tw/e_new_upload/cms/image/A0/B0/C0/D10/E122/F122/e0e2671c-1b48-462c-ba15-aad894ec75ae.jpg","intro":"國立臺灣大學社會科學院由日本知名建築家伊東豐雄建築師設計，並獲得2013年第35屆臺灣建築佳作獎的榮譽。而社會科學院辜振甫先生紀念圖書館位於大樓B1F至2F中央樓層，其中最富設計精髓的1F開架閱覽室，為一處長寬各約50公尺的通透、挑高近6米的空間，由88支樹狀柱結構屋頂夾雜130座形狀不一的天窗，配合竹集成材做為書架及閱覽家具，晝間陽光從天窗撒下，營造出置身於林蔭間閱讀的氛圍，森林般的閱覽室，藏著知識的森林，重新讓讀者拾回閱讀的靜思，開闊的空間也蘊含培養社會科學學者廣大視野的期待。\r\n本館以支援社科院教學、研究需求，厚植社會科學學術能量為業務核心，實體館藏整併自徐州路校區的法律暨社會科學院圖書分館、法律政治研究圖書室，經濟學研究所圖書室等三館舍之館藏。在徐州路校區時期法社分館即已累積龐大且珍藏的資料，新館舍營運後，將開展更深化的學術資源加值與讀者服務。 \r\n\r\n\r\n圖片擷取自國立台灣大學社會科學院辜振甫先生紀念圖書館網站\r\n\r\n本資料由文化部委託台灣閱讀推薦協會建構，建立日期為107年4月10日。","address":"台北市大安區羅斯福路四段1號","longitude":"121.542957","latitude":"25.034544","openTime":"週一至週五：08:20-22:00，週六：09:00-22:00，週日：09:00-17:00。（開放一般民眾進入時間依校方公告為主）","phone":"(02)33663366轉55600","email":"ntukoolib@ntu.edu.tw","headCityName":"","name_eng":"","intro_eng":"","mainTypeName":"特色圖書館","cityName":"臺北市  大安區","groupTypeName":"特色圖書館","mainTypePk":"5acc3ac66e5e541f9d5c55a2","version":"1.0","hitRate":2542},{"name":"國立台北大學圖書館","representImage":"https://cloud.culture.tw/e_new_upload/cms/image/A0/B0/C0/D10/E124/F755/99c2da09-23c1-412e-a5a3-72eeaeb0a929.jpg","intro":"本館位於新北市三峽區台北大學校區內。建築外觀融入三峽自然景觀意象，並以在地鶯歌陶瓷打造側邊弧線造型，充份展現美學設計與在地人文融合之美。內部空間採挑高、無隔間、落地窗設計，將美景與光線延展至室內各角落，再由廊橋串連動線，巧妙地營造開闊延伸的閱讀視野，打造綠建築美學。\r\n圖書館館藏目前約有42萬冊圖書館藏、現有紙本期刊290種、本校紙本碩博士論文、參考資料等提供館內閱覽。\r\n \r\n\r\n\r\n圖片擷取自國立台北大學圖書館臉書粉絲專頁\r\n\r\n本資料由文化部委託台灣閱讀推薦協會建構，建立日期為107年4月10日。","address":"新北市三峽區大學路151號","longitude":"121.371025","latitude":"24.933740","openTime":"週一至週五：08:30-21:00，週六、日：08:30-16:30。（開放一般民眾進入時間依校方公告為主）","phone":"(02)86741111","email":"","headCityName":"","name_eng":"","intro_eng":"","mainTypeName":"特色圖書館","cityName":"新北市  三峽區","groupTypeName":"特色圖書館","mainTypePk":"5acc41866e5e541f9d5c55a3","version":"1.0","hitRate":2031},{"name":"華婉兒童圖書館","representImage":"https://cloud.culture.tw/e_new_upload/cms/image/A0/B0/C0/D10/E143/F624/de923aa5-997c-4a04-8f68-24c7a320c358.jpg","intro":"華婉文教基金會於民國八十八年八月，在新竹市新竹國小正對面成立「華婉兒童圖書館」，主要目的在蒐集優良的兒童圖書，供大眾借閱，同時在館內塑造出一個舒適、安靜的環境，讓家長、兒童夠放鬆，安靜的選書、看書或查閱資料，無關利益考量，堅守「培養兒童閱讀興趣，提升兒童學習能力」的宗旨，以孵育兒童想像的溫床自居。\r\n目前館藏有將近兩千本英文繪本與文學類書籍，雖以兒童繪本為主要的館藏內容，但是服務的對象卻橫跨0至99歲的讀者群，歡迎大小朋友一起來尋寶。\r\n\r\n\r\n圖片擷取自華婉兒童圖書館臉書粉絲專頁\r\n\r\n本資料由文化部委託台灣閱讀推薦協會建構，建立日期為107年4月10日。","address":"新竹市東區興學街97號","longitude":"120.969102","latitude":"24.806942","openTime":"週二至週五：13:00-18:00，週六、日：10:00-18:00。週一及國定假日休館","phone":"(03)5614486","email":"hw.lib@msa.hinet.net","headCityName":"","name_eng":"","intro_eng":"","mainTypeName":"特色圖書館","cityName":"新竹市  新竹市","groupTypeName":"特色圖書館","mainTypePk":"5acc5acaaaa36011b2e93ca5","version":"1.0","hitRate":1522},{"name":"黃賓紀念圖書館","representImage":"https://cloud.culture.tw/e_new_upload/cms/image/A0/B0/C0/D10/E150/F520/947a73d9-a151-404e-b2a4-ae3353e7d213.jpg","intro":"黃賓紀念圖書館由市民黃木成先生捐贈土地、建物。為社區小型圖書館，101年獲教育部補助重新空間改造。一樓為期刊室、圖書室；館藏以收集高齡讀者有興趣的主題︰健康養生、旅遊、文學為館藏特色，並訂閱10 種報紙與16種雜誌，供社區民眾閱讀。二、三樓為普通閱覽室提供讀者閱覽自備書籍、另外三樓設置一間多功能教室，作為社區或讀書會團體使用，為嘉義西區市民提供一處閱覽圖書、休閒的好去處。\r\n\r\n\r\n圖片擷取自嘉義市政府文化局網站。 \r\n\r\n本資料由文化部委託台灣閱讀推薦協會建構，建立日期為107年4月10日。","address":"嘉義市西區延平街328號","longitude":"120.453822","latitude":"23.481019","openTime":"週二至週日：08:30-17:00，週一及國定假日休館。","phone":"(05)2259613","email":"","headCityName":"","name_eng":"","intro_eng":"","mainTypeName":"特色圖書館","cityName":"嘉義市  嘉義市","groupTypeName":"特色圖書館","mainTypePk":"5acc613c6e5e541f9d5c55a6","version":"1.0","hitRate":3946},{"name":"世賢圖書館","representImage":"https://cloud.culture.tw/e_new_upload/cms/image/A0/B0/C0/D10/E152/F419/44f77044-1245-45bc-a3c1-071bf7bf74a7.jpg","intro":"本館位於竹圍重劃區世賢國小旁，左前方是深具造型藝術的竹圍市地重劃紀念碑。館內造型摩登典雅，內部設備新穎完善，藏書豐富，尤以應用科學為收藏重點。設有普通閱覽室、兒童閱覽室、期刊室、參考室、書庫、演講廳、許世賢博士紀念館等，提供市民多元的閱覽空間。世賢圖書館與文化中心圖書館電腦連線，借書證一卡通用，提供市民更便捷的服務。\r\n\r\n\r\n圖片擷取自嘉義i憩頭網站\r\n\r\n本資料由文化部委託台灣閱讀推薦協會建構，建立日期為107年4月10日。","address":"嘉義市東區世賢路一段685號","longitude":"120.453822","latitude":"23.481019","openTime":"週二至週六：09:00-21:00，週日：09:00-17:00，週一及國定假日休館。","phone":"(05)2312794","email":"","headCityName":"","name_eng":"","intro_eng":"","mainTypeName":"特色圖書館","cityName":"嘉義市  嘉義市","groupTypeName":"特色圖書館","mainTypePk":"5acc6461aaa36011b2e93caa","version":"1.0","hitRate":8421},{"name":"澎湖縣西嶼鄉立圖書館","representImage":"https://cloud.culture.tw/e_new_upload/cms/image/A0/B0/C0/D10/E152/F853/6a1be874-aeaa-46bc-859c-4a862eedbc0d.JPG","intro":"本館位於西嶼鄉二崁社區，而二崁為文建會選定的文化聚落保存區，因此，建築外觀特以早期的建築風貌呈現，保留古樸的氣息，加以草原圍繞，牛羊成群。經常吸引觀光客駐足攝影。\r\n\r\n\r\n圖片擷取自澎湖縣圖書館網站\r\n\r\n本資料由文化部委託台灣閱讀推薦協會建構，建立日期為107年4月10日。","address":"澎湖縣西嶼鄉二崁村51-1號","longitude":"119.51367","latitude":"23.60546","openTime":"週一至週日：上午08:30-12：00、下午13:30-17：30 ，國定假日休館。","phone":"(06)9981500","email":"","headCityName":"","name_eng":"","intro_eng":"","mainTypeName":"特色圖書館","cityName":"澎湖縣  西嶼鄉","groupTypeName":"特色圖書館","mainTypePk":"5acc6463aaa36011b2e93cab","version":"1.0","hitRate":944},{"name":"花蓮縣文化局圖書館","representImage":"https://cloud.culture.tw/e_new_upload/cms/image/A0/B0/C0/D11/E112/F393/003ea069-2287-4b8a-9d01-4dd445ad0848.jpg","intro":"花蓮縣文化局園區座落於太平洋之濱， 園區內綠草如茵，在天氣晴朗時海天一色，是一處絕佳的休閒活動空間， 而花蓮縣文化局圖書館便伴隨著美術館、石雕博物館、演藝廳一起佇立於園區內。館內以淺綠色調及原木佈置為主，透過大片落地窗，視野可以更寬廣，希望藉此能為讀者營造一個舒適的閱讀空間。\r\n本館於102年獲教育部暨國家圖書館評選為「東區區域資源中心」，以「青少年」為藏書特色，試圖改造圖書館空間，營造出適合閱讀且令人心怡的環境，搭配整體戶外文化園區的藝術景致，打造出具有「山、海、藝、文、交織的閱章」的青少年特色圖書館，館藏主題含青少年圖書、多元文化、文化創意、知識性圖書等四大類，另以典藏「青少年圖書」為主題特色。\r\n\r\n\r\n圖片擷取自花蓮縣文化局網站\r\n\r\n本資料由文化部委託台灣閱讀推薦協會建構，建立日期為107年4月11日。","address":"花蓮市文復路6號","longitude":"121.59184","latitude":"23.977088","openTime":"週二至週日：09:00-21:00。星期一及國定假日休館","phone":"03-8227121","email":"","headCityName":"","name_eng":"","intro_eng":"","mainTypeName":"特色圖書館","cityName":"花蓮縣  花蓮市","groupTypeName":"特色圖書館","mainTypePk":"5acd7dfcaaa33fd71fec9be5","version":"1.0","hitRate":1260},{"name":"臺灣原住民族圖書資訊中心","representImage":"https://cloud.culture.tw/e_new_upload/cms/image/A0/B0/C0/D11/E121/F844/f3e95f62-bfc3-4267-8dfc-5915c778da87.jpg","intro":"原住民族委員會為提升對臺灣原住民族生態環境、文化、生活及產業等研究，整合原住民族相關研究資源，94年即委託國立臺灣大學圖書館規劃設立整合型的「臺灣原住民族圖書資訊中心」，並於95年7月正式開幕營運。\r\n臺灣原住民族圖書資訊中心將蒐集臺灣原住民族相關的各類型資料，以保存原住民族文化，妥善管理臺灣原住民族資源，強化其歷史文化、產業經濟、地理領域、智慧經驗的知識架構，將之組織整理、典藏保存並提供閱覽使用。支援並滿足對原住民族議題有興趣之人士的資訊需求，成為蒐集與使用臺灣原住民族資訊的重鎮。除致力於蒐集臺灣原住民族相關之各類型圖書資料、資源外，也蒐集世界各地原住民族之相關資訊資源，以達到與國際原住民族交流互動的目標。期許成為專業的研究典藏機構，支援學術研究，進而拓展與國際原住民之間的交流互動。\r\n\r\n\r\n圖片擷取自臺灣原住民族圖書資訊中心臉書粉絲專頁 \r\n\r\n本資料由文化部委託台灣閱讀推薦協會建構，建立日期為107年4月11日。","address":"臺北市大安區羅斯福路四段1號（臺灣大學校區內）","longitude":"121.542957","latitude":"25.034544","openTime":"週一至週五：8:00-18:00，週六：9:00-17:00。國定假日及每月最末週三為閉館日","phone":"(02)33663776","email":"ntutiprc@ntu.edu.tw","headCityName":"","name_eng":"","intro_eng":"","mainTypeName":"特色圖書館","cityName":"臺北市  大安區","groupTypeName":"特色圖書館","mainTypePk":"5acd8c106e5e3a9b1a6a7eff","version":"1.0","hitRate":1286},{"name":"臺北市客家圖書影音中心","representImage":"https://cloud.culture.tw/e_new_upload/cms/image/A0/B0/C0/D11/E126/F634/fc5951ae-8072-43c1-9827-b37baafca517.jpg","intro":"臺北市客家圖書影音中心是全臺第一座客家主題式影音圖書館，藏書高達八千餘冊，是客家知識研究學者的寶庫；完善的軟硬體影音設備，也使客家文化的歷史、民謠及戲劇等內容，可運用多媒體、數位等方式得以分類並妥善保存，豐富多元的館藏內容，受到全國客家族群的重視與肯定。\r\n本中心除了可作為青年學子及市民鄉親們獲得最新的客家相關資訊及活用知識平台外，同時將透過各種創意活動、研討會學術研究、論文發表及相關成果發表等之舉辦，以及藉由年輕人之豐富創造力與想像力來強化都會新舊傳承的客家意象，本衷心希望成為民眾接觸或參與客家文化之入口，提供民眾社會教育功能。\r\n\r\n\r\n圖片擷取自臺北市客家圖書影音中心臉書粉絲專頁\r\n\r\n本資料由文化部委託台灣閱讀推薦協會建構，建立日期為107年4月11日。","address":"臺北市中正區羅斯福路一段95巷1號","longitude":"121.507818","latitude":"25.039382","openTime":"週二至週五：10 :00-21:00，週六、日：10 :00-17:00，週一及國定假日休館","phone":"(02)23973733","email":"","headCityName":"","name_eng":"","intro_eng":"","mainTypeName":"特色圖書館","cityName":"臺北市  中正區","groupTypeName":"特色圖書館","mainTypePk":"5acd95b6aaa33fd71fec9be9","version":"1.0","hitRate":1195},{"name":"國家兩廳院表演藝術圖書館","representImage":"https://cloud.culture.tw/e_new_upload/cms/image/A0/B0/C0/D531/E376/F375/fc822493-3b0f-49c6-b580-a981be984f83.jpg","intro":"國家兩廳院表演藝術圖書館是國家表演藝術中心國家兩廳院所屬的專門圖書館。\r\n本館以建立專業表演藝術資訊中心為發展目標，館內典藏了音樂、戲劇、舞蹈、舞台、劇院管理等，各式與表演藝術相關的圖書與CD、DVD，另以及從兩廳院成立以來，演出節目相關的珍貴資料，像是海報、節目單與影音資料等。另有一區是為「特殊典藏室」，更是收藏2008年樂評家曹永坤所贈約7萬多件的黑膠唱片與CD，使館藏更趨多元。\r\n為了讓更多人親近表演藝術，2021年經空間重新整修後，不只取消會員制的門檻，全面開放讓民眾自由進入使用，更精心規劃各種主題策展、專題講座、音樂沙龍，與親子樂齡的活動，讓有興趣的人能夠參與，創造表演藝術愛好者交流與閱讀的知識文化空間。","address":"臺北市中正區中山南路21-1號","longitude":"121.507818","latitude":"25.039382","openTime":"週一至週五：09:00-20:00，週六、日：12:00-20:00。國定假日及每月一日休館日不開放（休館日若逢假日則順延）","phone":"(02)33939798","email":"ntchlib@mail.npac-ntch.org","headCityName":"","name_eng":"","intro_eng":"","mainTypeName":"特色圖書館","cityName":"臺北市  中正區","groupTypeName":"特色圖書館","mainTypePk":"5acd9c876e5e3a9b1a6a7f00","version":"1.0","hitRate":1620},{"name":"臺音資料館","representImage":"https://cloud.culture.tw/e_new_upload/cms/image/A0/B0/C0/D11/E155/F174/96022234-f4d6-490f-a41b-65fec0c6ee32.JPG","intro":"臺音資料館為臺灣戲曲中心內臺灣音樂館附設之音樂專業資料館，結合音樂資料的保存與典藏、展示與運用，提供專業的研究內容與展示的閱聽功能。館內規劃主題式館藏陳列，並搭配科技技術運用，讓文物資料立體化，同時搭配主題講座，以推廣臺灣音樂文化。\r\n本館為臺灣唯一的音樂專業資料圖書館，典藏臺灣各族群音樂、臺灣當代音樂、亞太及世界民族音樂，內涵包括：歌謠、說唱音樂、戲曲音樂、傳統器樂、舞蹈音樂、儀式宗教音樂、當代創作等，並進行數位資源建置與實體館藏徵集，提供完整音樂資訊。\r\n實體館藏累積約有四萬餘件，主要可分為期刊、圖書與影音資料（光碟、磁帶資料與唱片）等。包括本館歷年委託研究計畫成果、活動成果、文獻資料、政府出版品與一般性出版品。其中研究計畫成果針對臺灣各族群音樂進行調查研究，迄今已累積三十餘項原始成果資料，內容涵蓋音樂資源調查、臺灣音樂家、原住民音樂、客家音樂、道教音樂、南管、北管、說唱音樂等各面向，均為研究臺灣民族音樂發展軌跡重要之第一手資料。近年積極蒐羅臺灣作曲家之手稿及文物，進行實體與數位典藏、透過樂譜出版、演出錄音與主題展覽等方式，活化與推動臺灣音樂的豐碩成果。\r\n\r\n\r\n圖片擷取自國立傳統藝術中心網站 \r\n\r\n本資料由文化部委託台灣閱讀推薦協會建構，建立日期為107年4月10日。","address":"臺北市士林區文林路751號","longitude":"121.549359","latitude":"25.099687","openTime":"週二至週日：10:00-18:00，週一及國定假日（含連假）不對外開放","phone":"(02)88669600#2222","email":"tmi_service@ncfta.gov.tw","headCityName":"","name_eng":"","intro_eng":"","mainTypeName":"特色圖書館","cityName":"臺北市  士林區","groupTypeName":"特色圖書館","mainTypePk":"5acdbd916e5e3a9b1a6a7f07","version":"1.0","hitRate":886},{"name":"傳藝資料館","representImage":"https://cloud.culture.tw/e_new_upload/cms/image/A0/B0/C0/D11/E162/F376/6641cae0-25fc-460b-9636-e9139be14cc7.jpg","intro":"傳藝資料館位於宜蘭國立傳統藝術中心園區北側，於民國93年1月正式對外開館營運，成為臺灣傳統藝術圖書視聽資料之採編、管理及諮詢服務的專門圖書館。建築為二層樓的館舍，形式及材料採用宜蘭傳統建築常用的紅磚、黑瓦、卵石、洗石子以及斜屋頂合院建築，有三面拱圈形式的迴廊，牆面由紅磚及宜蘭的洗石構成，整體色彩十分和諧、處處可見傳統建築之美。\r\n資料館的設置配合中心成立初始以「園區即學校」的概念，針對參與傳習計畫長期研習的傳藝師生或相關領域研究人員，提供一個設備完善的研究環境。民國104年，圖書館配合園區下一階段委外規劃，進行功能與服務方式調整，更名為「傳藝資料館」，並於105年9月起重新開館，民眾可透過本中心官網預約入館以及調閱所需資料。\r\n館內具備傳統藝術類領域之書籍、視聽等資料之收藏、展示、出版等功能，還有研究閱覽等空間，漸次發展為功能完整的傳統藝術類專門圖書館。\r\n\r\n\r\n圖片擷取自國立傳統藝術中心網站\r\n\r\n本資料由文化部委託台灣閱讀推薦協會建構，建立日期為107年4月11日。","address":"宜蘭縣五結鄉季新村五濱路二段201號","longitude":"121.812721","latitude":"24.670978","openTime":"週一至週五：09:00-17:00。例假日及國定假日不對外開放。","phone":"(03)9705815","email":"lib@ncfta.gov.tw","headCityName":"","name_eng":"","intro_eng":"","mainTypeName":"特色圖書館","cityName":"宜蘭縣  五結鄉","groupTypeName":"特色圖書館","mainTypePk":"5acdc347aaa3fa92a9c12b67","version":"1.0","hitRate":756},{"name":"國立科學工藝博物館附設科普圖書館","representImage":"https://cloud.culture.tw/e_new_upload/cms/image/A0/B0/C0/D11/E172/F200/b6e06d46-8a08-4c3b-a621-d020f9e3aefa.jpg","intro":"國立科學工藝博物館附設科普圖書館的設置乃為落實「科技生活化、生活科技化」的理念，基於「綠博館」的概念，透過科普閱讀，讓科技向下紮根，使圖書館成為民眾生活與學習的中心，並可擴展來博物館的觀眾教育學習的角度與視野，以達到「天天都是閱讀日，人人成為科學人」的目標。\r\n閱覽室內的書籍陳列方式，最大特色是依照科普主題分類，並依讀者的閱讀興趣，設置焦點主題，利用顏色標示管理，一目了然。主題分類有九大類: 物理之美、化學天地、自然與科技、生物與人、動植物世界、科學百科、天文地理、數學與資訊、醫學保健。另外有五個焦點主題：科學實驗、創造與發明、能源與環保、科學家的故事、園藝之美。\r\n館內除圖書期刊陳列空間外，特別闢有「科普漫畫」專區，邀請知名漫畫家黃耀傑為館方設計規劃。漫畫家筆下的科學世界， 透過宇宙、天文、自然科技的畫面呈現，化為四幅壁畫圍繞的漫畫專區，讓小朋友在輕鬆看漫畫的情境中，耳濡目染科學氛圍，進而接觸進階的科普讀物。\r\n科普圖書館位於科工館南館，提供科普書刊、視聽DVD、科普漫畫及兒童科普書籍，閱覽室外南館大廳提供自由閱讀區。閱覽室及書庫開放時間為周一至周日早上九點到下午五點，閱覽室內則不提供自修。借書只限館員、志工。\r\n\r\n\r\n圖片擷取自國立科學工藝博物館網站 \r\n\r\n本資料由文化部委託台灣閱讀推薦協會建構，建立日期為107年4月11日。","address":"高雄市三民區九如一路 797 號","longitude":"120.322377","latitude":"22.639888","openTime":"週一至週日：09:00-17 :00","phone":"(07)380-0089","email":"public@mail.nstm.gov.tw","headCityName":"","name_eng":"","intro_eng":"","mainTypeName":"特色圖書館","cityName":"高雄市  三民區","groupTypeName":"特色圖書館","mainTypePk":"5acdd24aaaa3fa92a9c12b70","version":"1.0","hitRate":858},{"name":"他里霧繪本館","representImage":"https://cloud.culture.tw/e_new_upload/cms/image/A0/B0/C0/D17/E135/F504/3efa5e7e-237e-47df-92d6-b62fbc3339f0.png","intro":"他里霧繪本館位於他里霧微光草原聚落最尾端，卻是最早發光發熱的館舍；於2012年榮獲國家卓越建設獎之最高榮耀-「最佳環境文化類-文化設施類卓越獎」。以幾何形態變換作為元素，透過曲線、曲面產生強烈空間感受；且館藏豐富，使繪本館成為園區內人氣最旺的場館。\r\n\r\n\r\n圖片擷取自他里霧微光草原聚落網站 \r\n\r\n本資料由文化部委託台灣閱讀推薦協會建構，建立日期為107年4月10日。","address":"雲林縣斗南鎮南昌路17號","longitude":"120.47608","latitude":"23.677137","openTime":"10:00-18:00。他里霧微光草原聚落園區每週一、二公休，繪本館每週三休館。","phone":"(05)5962507#15","email":"tialiro2017@gmail.com","headCityName":"","name_eng":"","intro_eng":"","mainTypeName":"特色圖書館","cityName":"雲林縣  斗南鎮","groupTypeName":"特色圖書館","mainTypePk":"5ad58c196e5ebe3cf7ec67bd","version":"1.0","hitRate":991},{"name":"他里霧漫畫館","representImage":"https://cloud.culture.tw/e_new_upload/cms/image/A0/B0/C0/D17/E136/F180/118c9a4e-9f24-4e2a-ab6b-de8ff529c768.jpg","intro":"他里霧漫畫館館藏豐富，無論大小朋友，皆可在此找到現今最熱門之漫畫，而漫畫館場域內部空間規劃，以圖書館形式為基礎，並於館內規畫出個人閱讀空間，最推薦的位置，是位於漫畫館中，那與水車為鄰的玻璃櫥窗，在最舒適的環境之中，體會園區的愜意。\r\n\r\n\r\n圖片擷取自他里霧微光草原聚落網站 \r\n\r\n本資料由文化部委託台灣閱讀推薦協會建構，建立日期為107年4月10日。","address":"雲林縣斗南鎮南昌路19號","longitude":"","latitude":"","openTime":"10:00-18:00。他里霧微光草原聚落園區每週一、二公休，漫畫館每週四休館。","phone":"(05)5962507","email":"tialiro2017@gmail.com","headCityName":"","name_eng":"","intro_eng":"","mainTypeName":"特色圖書館","cityName":"雲林縣  斗南鎮","groupTypeName":"特色圖書館","mainTypePk":"5ad58d3e6e5ebe3cf7ec67be","version":"1.0","hitRate":2212},{"name":"新竹高中圖書館","representImage":"https://cloud.culture.tw/e_new_upload/cms/image/A0/B0/C0/D19/E101/F744/713109d9-a918-4c40-a58b-7b56791f655a.jpg","intro":"位於新竹高中的最深處\r\n緊鄰十八尖山與辛園(辛志平紀念園)\r\n在這裡，我們與書結盟\r\n也透過辦理竹中人文關懷講座、影展和展覽\r\n看到更多社會的面貌和世界的部分狀態\r\n\r\n站的更高\r\n讓我們有機會看的更遠\r\n藉由各種「閱讀」\r\n讓我們有機會與不同時期的青春相遇\r\n\r\n#除了竹中師生外、校友家長和社區民眾也歡迎一起來參與","address":"新竹市學府路36號","longitude":"120.96748","latitude":"24.81383","openTime":"周一~周五 8:00~17:30","phone":"03-5736666#540","email":"library@imail.hchs.hc.edu.tw","headCityName":"教育部","name_eng":"","intro_eng":"","mainTypeName":"特色圖書館","cityName":"新竹市","groupTypeName":"特色圖書館","mainTypePk":"5ad7fbc2aaa3ead8068c6f9e","version":"1.0","hitRate":1354},{"name":"中華飲食文化圖書館","representImage":"https://cloud.culture.tw/e_new_upload/cms/image/A0/B0/C0/D9/E175/F490/d440afb7-d76c-4730-b7ec-4e01b4193ea4.jpg","intro":"中華飲食文化基金會是一個以研究、傳承中華飲食文化為宗旨的民間財團法人，中華飲食文化圖書館即為中華飲食文化基金會成立的前身。於 1987年著手籌畫，1989年正式對外開放。它的成立不僅是世界上目前唯一以蒐集、保存中華飲食文化的寶藏，更是三商企業機構秉持著對社會大眾回饋的理念，免費提供社會大眾使用的專業圖書館。\r\n早在三商大樓奠基之初，三商企業機構即有意成立圖書館；經各方徵詢評估，並以董事長翁肇喜先生蒐集流落世界各地的中華飲食古籍的心願，經過兩年的籌館後正式開放，爾後並成立基金會，務期以中華飲食文化中的天文、地理、歷史、文學、藝術、考古、文物、傳說、禮儀、習俗、美學、哲學、生活科學、生活文化，與烹飪技巧等有密切關係之層面，作為探討、研究之對象，使中華飲食文化能有系統的一脈傳承。\r\n\r\n\r\n圖片擷取自財團法人中華飲食文化基金會臉書粉絲專頁\r\n\r\n本資料由文化部委託台灣閱讀推進協會建構，建立日期為107年5月9日。","address":"台北市中山區建國北路二段145號B1","longitude":"121.524686","latitude":"25.072631","openTime":"週一至週五：09:00-17:00（12:00-13:00休館），國定例假日休館。","phone":"(02)2503-1111#5616-5622","email":"fcdc@mercuries.com.tw","headCityName":"","name_eng":"","intro_eng":"","mainTypeName":"特色圖書館","cityName":"臺北市  中山區","groupTypeName":"特色圖書館","mainTypePk":"5af2c3c86e5ee2030723d877","version":"1.0","hitRate":2169},{"name":"大崎兒童藝術圖書館","representImage":"https://cloud.culture.tw/e_new_upload/cms/image/A0/B0/C0/D9/E182/F166/03febbea-8dfe-44dd-b5e3-c0528d5a2004.jpg","intro":"大崎兒童藝術圖書館前身為官田區大崎里中山堂，原已閒置多年，國立台南藝術大學建築藝術研究所城鄉思維與實踐組師生自2012年起，和社區居民共同努力，並獲得社會各界捐款浥注下，重新整理成圖書館。近幾年更在大崎開始推動兒童藝術課程，如捏陶、繪畫、攝影、戲劇、藝術創作，希望將藝術資源結合進兒童教育之中，帶著孩子們一起思考、一起設計、一起動手做，期盼孩子們在找到純真的笑靨與美好回憶之餘也能夠學習到有趣的知能。\r\n\r\n\r\n圖片擷取自大崎兒童藝術圖書館臉書粉絲專頁\r\n\r\n本資料由文化部委託台灣閱讀推薦協會建構，建立日期為107年5月9日。","address":"台南市官田區大崎里10號","longitude":"","latitude":"","openTime":"週六、日：09:00-17:00","phone":"0910 961 904","email":"da7childartlibrary@gmail.com","headCityName":"","name_eng":"","intro_eng":"","mainTypeName":"特色圖書館","cityName":"臺南市  官田區","groupTypeName":"特色圖書館","mainTypePk":"5af2ca406e5ee2030723d878","version":"1.0","hitRate":1632},{"name":"文房 Chapter","representImage":"https://cloud.culture.tw/e_new_upload/cms/image/A0/B0/C0/D12/E234/F679/b75e9242-4ab7-40b2-b1a2-55baf04bcb70.jpg","intro":"歷史建物是過去文化風貌的塑造形成，文化延綿保存，需要更多社會資源挹注。本公司對文房的修復，本著修舊如舊、與時俱進的原則，聘傳統匠師，以傳統工藝，配合新的技術及環保綠建築來修復文房。\r\n我們以公益出發，經營最美麗的公益圖書館「文房」，免費開放給國人，使用期屆滿，歷史建物返還市府，讓文化資產得以活化永續。我們用心投入修復、經營、傳承文化資產，希望結合歷史建物、環境、生活、記憶，打造市區新亮點。\r\n本棟建物為日據末期日式住宅，其格局特殊，東面應接室、露臺為洋式、西邊為和式，為和洋折衷式樣建築。牆體為編竹夾泥牆外貼雨淋板、屋架為木衍架、屋面鋪日式黑瓦。入口露臺、門廳仿萊特風格，在目前保留下來的日式建築中並不多見。\r\n臺北市文化局於2007年5月30日公告此建築為臺北市定歷史建築物。\r\n2013年北市府推動「老房子文化運動」，透過與民間合作，我們得標後悉心修復，讓老屋搖身一變成為藏書閱「文房」。\r\n\r\n圖片擷取自文房 Chapter臉書粉絲專頁\r\n\r\n本資料由文化部委託台灣閱讀推進協會建構，建立日期為107年5月12日。","address":"台北市中正區臨沂街27巷1號","longitude":"121.507818","latitude":"25.039382","openTime":"週二- 週日: 10:00 - 18:00（預約制）","phone":"(02)2341 9662","email":"service@chapter.com.tw","headCityName":"","name_eng":"","intro_eng":"","mainTypeName":"特色圖書館","cityName":"臺北市  中正區","groupTypeName":"特色圖書館","mainTypePk":"5af70a8b6e5ee2030723d880","version":"1.0","hitRate":1272},{"name":"齊東詩舍","representImage":"https://cloud.culture.tw/e_new_upload/cms/image/A0/B0/C0/D13/E146/F402/79aec339-2685-45f5-bc5b-38407861450b.jpg","intro":"位於臺北市濟南路二段25、27號的臺北市歷史建築，由文化部在2009年委請臺北市政府文化局修繕後，將此素雅的建築命名為「齊東詩舍」，成為文學地景新亮點，並委請國立臺灣文學館進行經營管理。同時推動「詩的復興」計畫，作為詩的復興基地，發展創作交流、展示教育以及文學研究等工作。靜謐優雅的木造日式建築，提供民眾讀詩、寫詩、看展的藝文空間。\r\n\r\n圖片擷取自齊東詩舍臉書粉絲專頁\r\n\r\n本資料由文化部委託台灣閱讀推進協會建構，建立日期為107年5月13日。","address":"台北市中正區濟南路二段25、27號","longitude":"121.507818","latitude":"25.039382","openTime":"每週二至週日10:00-17:00","phone":"(02)23279657","email":"","headCityName":"","name_eng":"","intro_eng":"","mainTypeName":"特色圖書館","cityName":"臺北市  中正區","groupTypeName":"特色圖書館","mainTypePk":"5af7e1aeaaa3c6afbbf0bbaf","version":"1.0","hitRate":1116},{"name":"行冊 walkingbook","representImage":"https://cloud.culture.tw/e_new_upload/cms/image/A0/B0/C0/D13/E153/F473/af308425-a33a-4f94-a048-067bf486e592.jpg","intro":"行冊為40年老屋，現址為蔣渭水大安醫院所在地的一部份，為了將歷史文化與當代設計相結合，耗費七個月才完工，2016年並獲「台北市老屋新生大獎」銀獎殊榮。複合式空間以家為概念，一樓為客廳，二樓餐廳，三樓書房。位於三樓的圖書空間，書籍分為三大類：台灣獨立書刊、視覺藝術與圖文設計類雜誌、文學藝術類。入館費用：全日8小時300元，半日4小時200元，可於一樓客廳換取一杯160元的飲品，其他飲品可補差額。\r\n\r\n圖片擷取自行冊 walkingbook官方網站\r\n\r\n本資料由文化部委託台灣閱讀推進協會建構，建立日期為107年5月13日。","address":"台北市大同區延平北路二段33號","longitude":"121.510036","latitude":"25.043204","openTime":"每週二至週日12:00-22:00","phone":"(02)25580915","email":"walkingbook.tw@gmail.com","headCityName":"","name_eng":"","intro_eng":"","mainTypeName":"特色圖書館","cityName":"臺北市  大同區","groupTypeName":"特色圖書館","mainTypePk":"5af7e9a06e5ee2030723d881","version":"1.0","hitRate":1407},{"name":"Lightbox攝影圖書室","representImage":"https://cloud.culture.tw/e_new_upload/cms/image/A0/B0/C0/D13/E182/F742/b01e1e6a-b413-40da-8232-0e411eb271f3.jpg","intro":"一個以台灣為主體、面向公眾、自由開放的攝影圖書室。\r\nLightbox攝影圖書室為島嶼影像合創社所成立，成立的首要目標，就是匯集和整理台灣的攝影出版物。秉持著自由開放、共構共享的精神，延續「攝影」與「圖書館」自由開放和面向公眾的特質，以台灣的攝影出版物為主體，展開匯集整理的工作。同時，邀請民眾參與，共同建構屬於我們自己的攝影文化。\r\n\r\n圖片擷取自Lightbox攝影圖書室官方網站\r\n\r\n本資料由文化部委託台灣閱讀推進協會建構，建立日期為107年5月13日。","address":"台北市中正區金門街5-1號3樓","longitude":"121.507818","latitude":"25.039382","openTime":"週二至週六13:00 - 20:00","phone":"(02)23678161","email":"info@lightboxlib.org","headCityName":"","name_eng":"","intro_eng":"","mainTypeName":"特色圖書館","cityName":"臺北市  中正區","groupTypeName":"特色圖書館","mainTypePk":"5af812676e5ee2030723d888","version":"1.0","hitRate":997},{"name":"Boven雜誌圖書館","representImage":"https://cloud.culture.tw/e_new_upload/cms/image/A0/B0/C0/D13/E184/F526/2e7e6868-d024-4105-9fe1-d20cbeada841.jpg","intro":"Boven雜誌圖書館為全球首座雜誌圖書館，擁有二萬本來自世界各地，包括設計、藝術、時尚、生活、攝影等各類雜誌；在數位時代的今日反其道而行，大力推廣紙本閱讀的美好，是因為紙本閱讀具有數位媒體所無可取代的溫度和時代感。而翻閱紙本的動作，紙張的味道與厚度，那份存在感，這種直覺式的體驗，不會存在於電子媒介中。boven提供讀者一份美好的閱讀體驗，也希望大家能夠將這樣的經驗複製於自己的生活中。來一趟boven雜誌圖書館，閱讀，又不只是閱讀。\r\n\r\n圖片擷取自Boven雜誌圖書館臉書粉絲專頁\r\n\r\n本資料由文化部委託台灣閱讀推進協會建構，建立日期為107年5月13日。","address":"台北市大安區復興南路一段107巷5弄18號B1","longitude":"121.542957","latitude":"25.034544","openTime":"12:00 - 22:00","phone":"(02)27787526","email":"mag.boven@gmail.com","headCityName":"","name_eng":"","intro_eng":"","mainTypeName":"特色圖書館","cityName":"臺北市  大安區","groupTypeName":"特色圖書館","mainTypePk":"5af8167daaa3c6afbbf0bbba","version":"1.0","hitRate":1835},{"name":"益品書屋","representImage":"https://cloud.culture.tw/e_new_upload/cms/image/A0/B0/C0/D13/E193/F231/f2f4d462-e6ed-419e-aa8a-3a6159ae9609.jpg","intro":"2016年在台北仁愛路創立的益品書屋，以推廣閱讀為終身志業，期待閱讀成為最美麗的風景。\r\n有別於傳統書店、圖書館，書屋內書籍均只提供內閱，選書皆為圖多於文的精裝本，再昂貴的書籍都不封膜，書屋亦提供不同的桌椅選擇，歡迎大家挑一本書，用自己喜愛的姿態坐下閱讀。\r\n\r\n圖片擷取自益品書屋臉書粉絲專頁\r\n\r\n本資料由文化部委託台灣閱讀推進協會建構，建立日期為107年5月13日。","address":"新北市淡水區中正路一段100號","longitude":"121.4221283","latitude":"25.1776583","openTime":"10:30-18:00","phone":"(02)23972998","email":"service@epbooks.com.tw","website":"https://epbooks.com.tw/","headCityName":"","name_eng":"","intro_eng":"","mainTypeName":"特色圖書館","cityName":"新北市  淡水區","groupTypeName":"特色圖書館","mainTypePk":"5af821c96e5ee2030723d889","version":"1.0","hitRate":1680},{"name":"臺北市社區營造中心小書庫","representImage":"https://cloud.culture.tw/e_new_upload/cms/image/A0/B0/C0/D13/E215/F608/caa19ccb-a18d-4efb-997d-6e82d37a2c3e.jpg","intro":"臺北市社區營造中心小書庫是由社造中心同仁自己動手整理過後，賦予全新感受的館舍空間，目前由多位大學實習生們共同經營管理，藏書不定期更換，除了提供社區民眾閱讀空間之外，也會不定期舉行故事換咖啡活動，期許小書庫可以成為一個可以接納各種人與各種在地或個人生命故事的空間。\r\n\r\n圖片擷取自臺北市社區營造中心臉書粉絲專頁 \r\n\r\n本資料由文化部委託台灣閱讀推進協會建構，建立日期為107年5月13日。","address":"臺北市大同區延平北路二段237號","longitude":"121.510036","latitude":"25.043204","openTime":"週二至週日09:00-12:00，14:00-17:00","phone":"(02)25575679","email":"community.taipei@gmail.com","headCityName":"","name_eng":"","intro_eng":"","mainTypeName":"特色圖書館","cityName":"臺北市  大同區","groupTypeName":"特色圖書館","mainTypePk":"5af8422f6e5ee2030723d88a","version":"1.0","hitRate":898},{"name":"阿嬤家-和平與女性人權館","representImage":"https://cloud.culture.tw/e_new_upload/cms/image/A0/B0/C0/D13/E234/F66/30c22f3d-1e95-4fb5-8a48-ea46a0f6922f.jpg","intro":"一棟近百年的歷史建築\r\n一場經歷25年的人權運動\r\n一個匯集女性生命力的所在\r\n\r\n婦女救援基金會自1992年起，投入台灣「慰安婦」人權運動。12年前開始醞釀夢想，希望能找到一個場地，保存阿嬤們的生命故事。期間歷經無數的挑戰與挫折，2015年11月終於在臺北市大稻埕找到了一棟典雅建築！我們決定打造「阿嬤家：和平與女性人權館」。這是臺灣首座以「慰安婦」人權運動為基礎，集結當代女權議題展示及婦女培力的多功能社會教育基地。\r\n「阿嬤家」於2016年3月8日揭牌，12月10日世界人權日正式開館。館內有以「慰安婦」歷史的常設展，並不定時設有主題特展。館內女力空間設有一公民書房，收藏女性人權相關議題之書籍約400本，供民眾閱覽，並開放書籍訂購服務。\r\n\r\n圖片擷取自阿嬤家- 和平與女性人權館臉書粉絲專頁\r\n\r\n本資料由文化部委託台灣閱讀推進協會建構，建立日期為107年5月13日。","address":"臺北市大同區迪化街一段256號","longitude":"121.510036","latitude":"25.043204","openTime":"週二至週日 10:00-17:00","phone":"(02)25537133","email":"ama@twrf.org.tw","headCityName":"","name_eng":"","intro_eng":"","mainTypeName":"特色圖書館","cityName":"臺北市  大同區","groupTypeName":"特色圖書館","mainTypePk":"5af85af9aaa3c6afbbf0bbbb","version":"1.0","hitRate":1028},{"name":"樂樂書屋","representImage":"https://cloud.culture.tw/e_new_upload/cms/image/A0/B0/C0/D14/E152/F685/cac553d6-cbcf-49dc-acf2-8aaf747948b7.jpg","intro":"座落在台中西屯區，由室內設計師張清平打造，以「每一本書只交換不販售」為理念的樂樂書屋，同時兼具圖書館、咖啡館、藝廊與展演廳等各式功能，希望透過書的流動，讓大眾再度感受書的溫度！\r\n\r\n圖片擷取自樂樂書屋臉書粉絲專頁\r\n\r\n本資料由文化部委託台灣閱讀推進協會建構，建立日期為107年5月14日。","address":"台中市西屯區玉成路6號","longitude":"120.64243","latitude":"24.176977","openTime":"週三至週一 11:00-18:00","phone":"(04)23582083","email":"lele@mail.lelebooks.com.tw","headCityName":"","name_eng":"","intro_eng":"","mainTypeName":"特色圖書館","cityName":"臺中市  西屯區","groupTypeName":"特色圖書館","mainTypePk":"5af938b2aaa3c6afbbf0bbc2","version":"1.0","hitRate":1017},{"name":"郡九街庄","representImage":"https://cloud.culture.tw/e_new_upload/cms/image/A0/B0/C0/D16/E116/F117/6d3a30b5-750c-4665-9310-a423633b95fb.jpg","intro":"台南市新化區的郡九街庄，是歷經八十多個寒暑的老店屋。它棲身於仿巴洛克建築立面林立的新化老街上，一樓農創空間除了用以推廣新化周邊鄉鎮的友善環境作物和農產加工品，同時保留過去作為「長泰西藥房」時的面貌，包括藥房櫃台，連同藥罐、天秤、藥師筆記等老物件，都受到悉心整理，安放進木製藥櫃中。\r\n二樓的「人文書堂」常舉辦講座，譬如邀請農友介紹相關的農業故事與知識，此外也是店主分享個人藏書的免費閱讀空間，閱讀空間分享的圖書大致可分為友善環境／農業、文創設計、社會企業及地方文史等4大類。希望透過這些書籍的擴充，吸引對文化、文創、青創、社企、友善農業等議題有興趣的人，將此處當作共同工作空間使用。\r\n\r\n圖片擷取自郡九街庄臉書粉絲專頁\r\n\r\n本資料由文化部委託台灣閱讀推進協會建構，建立日期為107年5月16日。","address":"台南市新化區中正路364號","longitude":"120.332016","latitude":"23.028088","openTime":"週四至週一 10:30-19:30","phone":"(06)5906263","email":"","headCityName":"","name_eng":"","intro_eng":"","mainTypeName":"特色圖書館","cityName":"臺南市  新化區","groupTypeName":"特色圖書館","mainTypePk":"5afbac61aaa3c6afbbf0bbce","version":"1.0","hitRate":1129},{"name":"陸府藝角","representImage":"https://cloud.culture.tw/e_new_upload/cms/image/A0/B0/C0/D24/E122/F368/a7c9466d-44cc-4eb8-b97d-17a50fb835c1.jpg","intro":"陸府生活美學教育基金會長期關懷生態、支持藝文，持續推廣生態、生活、生命的生機美學理念，進駐臺中國家歌劇院成立陸府藝角藝文空間，現場提供視覺藝術、表演藝術、建築設計相關免費書籍、藝術相關報刊雜誌供民眾現場閱讀。","address":"惠來路二段101號 臺中國家歌劇院","longitude":"","latitude":"","openTime":"11:30~20:00","phone":"0800524365","email":"earth@live-forever.com.tw","headCityName":"陸府生活美學教育基金會","name_eng":"","intro_eng":"","mainTypeName":"特色圖書館","cityName":"臺中市  西屯區","groupTypeName":"特色圖書館","mainTypePk":"5b063d10aaa369a738d2d57b","version":"1.0","hitRate":1443},{"name":"小書房petite étude","representImage":"https://cloud.culture.tw/e_new_upload/cms/image/A0/B0/C0/D4/E172/F784/2d280750-cdf2-4e88-9e68-25f6c9e41d25.jpg","intro":"「小書房」為法語petite étude中文之意，據悉命名由來是為了向法國文藝復興運動致敬，為秀泰集團與金石堂書店聯手打造的全新概念藝文空間，雖名叫「小書房」，可是卻一點也不「小」！不僅佔地高達千坪、藏書更超過6萬冊，於秀泰廣場S2館2樓磅礡開幕。這個結合了書籍、咖啡吧、烘焙與創意手作的空間，就像法國文藝復興時期的「沙龍」地位一樣，期許提供一個人們能夠盡情交流、分享想法的人文薈萃之地。\r\n\r\n圖片擷取自金石堂台中店臉書粉絲專頁\r\n\r\n本資料由文化部委託台灣閱讀推進協會建構，建立日期為107年6月4日。","address":"南京路66號（秀泰廣場2館2樓）","longitude":"120.69442","latitude":"24.14277","openTime":"11:00-22:00","phone":"(04)22152449","email":"","headCityName":"","name_eng":"","intro_eng":"","mainTypeName":"特色圖書館","cityName":"臺中市  東區","groupTypeName":"特色圖書館","mainTypePk":"5b1505576e5ef5495f607903","version":"1.0","hitRate":1002},{"name":"虎尾合同廳舍","representImage":"https://cloud.culture.tw/e_new_upload/cms/image/A0/B0/C0/D4/E174/F698/bc79fcde-73b1-452c-a1bf-13b68fe147c1.jpg","intro":"虎尾合同廳舍位於雲林縣虎尾鎮，係為台灣日治時期消防單位觀測轄區失火位置與完成通報之緊急救災建築物，建築形式與台南州一九三九年完成之消防隊有異曲同工之妙。建物四層樓高之瞭望塔式閣樓，曾是虎尾最高的建築地標。本建物於民國90年10月31日登錄為歷史建築，民國95年12月完成修復。\r\n目前整體空間再利用做為誠品書店虎尾店，同時也是誠品書店及星巴克咖啡在雲林縣第一間門市。\r\n\r\n圖片擷取自迷誠品網站\r\n\r\n本資料由文化部委託台灣閱讀推進協會建構，建立日期為107年6月4日。","address":"林森路一段491號","longitude":"120.434947","latitude":"23.710246","openTime":"10:30-21:30","phone":"(05)7003566","email":"","headCityName":"","name_eng":"","intro_eng":"","mainTypeName":"特色圖書館","cityName":"雲林縣  虎尾鎮","groupTypeName":"特色圖書館","mainTypePk":"5b1508d5aaa3168cc99563db","version":"1.0","hitRate":1390},{"name":"文藝資料研究及服務中心","representImage":"https://cloud.culture.tw/e_new_upload/cms/image/A0/B0/C0/D4/E170/F357/cb112e9f-3721-4f2c-953c-5f4a4756227f.jpg","intro":"創立於1983年的《文訊》原隸屬國民黨，2003年改由台灣文學發展基金會獨立經營，迄今已逾15年，是台灣文學界信賴的文學公共論域。在長年的雜誌編輯、籌辦大型文學展覽活動，及研究專案等積累下，文訊已累積了十萬餘冊圖書、七百多種期刊、四萬餘張作家及文壇活動照片，是國內外學界研究台灣文學的寶藏之地。\r\n台灣文學發展基金會秉持共享理念，特別成立「文藝資料研究及服務中心」（下稱「文藝資料中心」），期許該中心在典藏之外，更能持續活化應用文學作品及資料。\r\n中心以「每一位作家，就是一個文庫」為經營理念，以作家全集暨資料彙編的方式，典藏不同版本、不同出版社的作家作品，及其手稿、書信、照片、評論等相關資料，挖掘與累積無數創作者心血結晶的文學史料。該中心除了自購的圖書之外，另有半數來自出版社、學者或作家贈書及手稿、照片等文物，數量龐大，史料價值珍貴。\r\n在《文訊》屆滿35週年的同時，文藝資料中心正式對外開放，以開架式提供參詢，讀者可加入年度會員或以次計費申請使用。\r\n\r\n\r\n圖片擷取自文藝資料研究及服務中心臉書粉絲專頁\r\n\r\n本資料由文化部委託台灣閱讀推進協會建構，建立日期為107年7月4日。","address":"中山南路11號B2","longitude":"121.507818","latitude":"25.039382","openTime":"週一至週五09:30-17:30","phone":"(02)2343-3142#401","email":"wsnlib@gmail.com","headCityName":"","name_eng":"","intro_eng":"","mainTypeName":"特色圖書館","cityName":"臺北市  中正區","groupTypeName":"特色圖書館","mainTypePk":"5b3c8d216e5e104a8ca080da","version":"1.0","hitRate":810},{"name":"高雄市立圖書館總館_青少年書區","representImage":"https://cloud.culture.tw/e_new_upload/cms/image/A0/B0/C0/D1/E181/F453/145aa5a9-517b-48b4-b791-2cc00bd74ccd.jpg","intro":"高市圖總館，位於高雄亞洲新灣區，以「館中有樹、樹中有館的懸吊式綠建築文化地標」，吸引全國民眾與文化界目光；明亮而穿透性的空間規劃，提供民眾嶄新的閱讀經驗；市民自發性捐款成就了百萬藏書目標，這是一座凝聚高雄市民愛與希望的市民圖書館，引領城市轉型，打造城市永續發展的知識殿堂。\r\n\r\n一、\t導覽服務內容：由專業導覽人員依高雄市立圖書館總館設立沿革、建築特色、專業典藏及軟硬體設備等進行解說，分華語、台語、英語及日語等4種語言導覽。\r\n二、\t預約方式：以機關、學校、社團為申請單位，每日提供六個預約時段(10:30、13:00、14:00、15:00、16:00、19:00)，預約人數每時段須達10 人以上、80人以內，於7日前完成預約申請。\r\n三、\t導覽時間：每場約60分鐘， 每週一休館暫停導覽活動。\r\n四、\t導覽費用：每人每場次新台幣壹百元整， 40人以上團體可享8折優惠。\r\n五、\t洽詢專線：週一至週五上午9:00-12:00下午14:00-17:00\r\n(07)5360238分機8301、8302、8303、8304、8305團體預約申請書請傳送\r\nangellion@mail.ksml.edu.tw 傳送後請再來電確認","address":"高雄市前鎮區新光路61號","longitude":"120.30144","latitude":"22.62728","openTime":"10:00~22:00（週六、日21:30停止入館） 國定假日開放時間10:00~17:00（16:30停止入館）","phone":"07-5360238代表號","email":"","headCityName":"高雄市政府文化局","name_eng":"","intro_eng":"","mainTypeName":"特色圖書館","cityName":"高雄市","groupTypeName":"特色圖書館","mainTypePk":"5bb1f2846e5ec5084be7e36a","version":"1.0","hitRate":1239},{"name":"七刀space","representImage":"https://cloud.culture.tw/e_new_upload/cms/image/A0/B0/C0/D28/E114/F524/5c88915e-667f-44f2-8f52-bb4903ae7a98.jpg","intro":"跟生活take a BREAK !\r\n一個切換模式、放空自己的地方。\r\n\r\n計時圖書屋 | 空間分享\r\n\r\n書籍種類中，設計佔大多數，其中又以Graphic和Typography為主。生活風格類次之，還有旅遊，食譜，貓咪，咖啡，也有文史哲和國外購入的小雜誌等等，不定期更新書刊。","address":"北投路二段13號8樓-1","longitude":"121.559834","latitude":"25.091075","openTime":"週三、週四、週五 13:00-22:00 (假日偶爾開放，以FB為主)","phone":"","email":"takeabreakspace@gmail.com","headCityName":"","name_eng":"","intro_eng":"","mainTypeName":"特色圖書館","cityName":"臺北市","groupTypeName":"特色圖書館","mainTypePk":"5bfe0f16aaa3d4b3c47fd31f","version":"1.0","hitRate":1047},{"name":"康寧學校財團法人康寧大學圖書館","representImage":"https://cloud.culture.tw/e_new_upload/cms/image/A0/B0/C0/D5/E102/F902/2042aa55-9936-4da7-9f14-82e59b0f4333.jpg","intro":"為實踐大學社會責任，強化大學與社區的連結關係，康寧大學台北校區圖書館週六週日開放社區使用，圖書館內重新裝潢閱覽室，內部佈置溫馨雅緻，空間設計更具巧思，包括：親子閱讀區、報章雜誌區、電影觀賞區、電子書牆等多元服務，並結合智慧型圖書館概念，以RFID管理系統為輔，館內外設有自助借還書機與24小時還書系統，讓讀者借還書不求人。\r\n\r\n另搭配投幣咖啡機，讓讀者在幽靜舒適的環境中，啜飲咖啡品書；而藝文特區每兩月推出不同主題畫展，讓喜愛藝術的朋友們可以共享圖書與藝術。\r\n\r\n整體環境更佳舒適友善，充分提供學習、閱讀和休閒的需求，已成為師生與社區民眾留戀忘返之處。亦期望為變動快速的社會開闢一塊寧靜溫馨的角落，帶動社區讀書風氣，讓人心沉澱，智慧發芽。","address":"康寧路三段75巷137號","longitude":"121.559834","latitude":"25.091075","openTime":"周一~周五08:00~20:00；週六週日9:00~17:00； 農曆春節、國定假期休館；寒暑假開閉館時間另詳見官網公告。","phone":"02-26321181 #365","email":"","headCityName":"","name_eng":"","intro_eng":"","mainTypeName":"特色圖書館","cityName":"臺北市","groupTypeName":"特色圖書館","mainTypePk":"5e3a285caaa3617fa5c4de6a","version":"1.0","hitRate":1652},{"name":"新北市立圖書館淡水分館","representImage":"https://cloud.culture.tw/e_new_upload/cms/image/A0/B0/C0/D2/E194/F580/3cc8706c-b690-47f2-8a81-8e72e677816f.jpg","intro":"淡水分館位於淡水老街後方，設有5樓典藏淡水與藝文迴廊展覽區、4F圖書室與兒童室、3F閱覽室、1-2F演藝廳、B1F藝文中心；以「ENJOY」作為閱讀空間的主題，走進室內，各分齡閱讀區清新溫暖的色調，將閱讀變成了一種享受；若嫌不足，還可將書本帶至戶外閱讀空間，讓書香與淡水的山光水色合而為一，充分陶醉在閱讀裡。","address":"新北市淡水區文化路65號","longitude":"121.417046","latitude":"25.140605","openTime":"周二至周六 8:30-21:00 周日至周一8:30-17:00 固定休館日為每月最後一個週四、國定假日","phone":"(02) 2622-4664","email":"a26224664@gmail.com","headCityName":"新北市政府文化局","name_eng":"","intro_eng":"","mainTypeName":"特色圖書館","cityName":"新北市","groupTypeName":"特色圖書館","mainTypePk":"6389e54831bee9b6a92a2c28","version":"1.0","hitRate":1598},{"name":"見真書院","representImage":"https://cloud.culture.tw/e_new_upload/cms/image/A0/B0/C0/D14/E13/F892/e339c598-ad8c-4953-8c20-f9e33bb56c61.png","intro":"#見真書院 以新時代精神，融攝古經典智慧，\r\n創造東情西韵的體驗空間，\r\n以安住「真心」、讓覺知得以自由抒放出發，\r\n不僅是一處上課空間，\r\n也融入藝廊概念，\r\n形塑藝術、寧靜具底蘊氛圍的書院。\r\n映照著室外的舒適綠意，\r\n室內展現的是別有意境的畫作，\r\n和宋茶碗牆相互呼應，彷彿發出喃喃對語，\r\n藉著藝術、心靈之器與自然的交流對話，\r\n將整體空間凝聚為豁達而深厚的身心靈美學之境。\r\n你現在看到這個貼文，就是好運的磁場將你吸引了過來，希望見到你，\r\n── 安住真心，活出自己。","address":"吳興街118巷26弄15-1號1樓","longitude":"121.564467","latitude":"25.035487","openTime":"12:00-21:00","phone":"02-27326916","email":"jianzhenacademy@gmail.com","headCityName":"中華文化學會","name_eng":"","intro_eng":"","mainTypeName":"特色圖書館","cityName":"臺北市  信義區","groupTypeName":"特色圖書館","mainTypePk":"6488a7fd31beb7437ecba9bd","version":"1.0","hitRate":526}]